[
  {
    "date": "2022-07-30",
    "kennelTags": [
      "douliu-h3"
    ],
    "runNumber": 159,
    "startTime": "14:00"
  },
  {
    "date": "2022-08-27",
    "kennelTags": [
      "douliu-h3"
    ],
    "runNumber": 160,
    "startTime": "14:00",
    "location": "Douliu. Meet at train station, 1pm.\nCheck FB for details."
  },
  {
    "date": "2022-09-24",
    "kennelTags": [
      "douliu-h3"
    ],
    "title": "The Ï Got Blisters On My Fingers\" run",
    "runNumber": 161,
    "startTime": "14:00",
    "location": "Chiayi."
  },
  {
    "date": "2022-10-29",
    "kennelTags": [
      "douliu-h3"
    ],
    "title": "The \"Tampon-sucking Vampire\" Night-run",
    "runNumber": 162,
    "startTime": "16:20",
    "location": "Meet at Douliu train station, rear/west side."
  },
  {
    "date": "2022-11-26",
    "kennelTags": [
      "douliu-h3"
    ],
    "runNumber": 163,
    "startTime": "13:00",
    "hares": "Hand Solo & Crampee Bushibum",
    "location": "Meet @ Changhua train station at 1pm",
    "latitude": 24.08146572663453,
    "longitude": 120.53840526327569
  },
  {
    "date": "2022-12-31",
    "kennelTags": [
      "douliu-h3"
    ],
    "title": "Xmas run",
    "runNumber": 164,
    "startTime": "13:00",
    "hares": "DDT",
    "location": "Douliu",
    "latitude": 23.712087232893595,
    "longitude": 120.54068691703279
  },
  {
    "date": "2023-02-25",
    "kennelTags": [
      "douliu-h3"
    ],
    "runNumber": 165,
    "startTime": "12:00",
    "hares": "CBB & DITB",
    "location": "Meet at Chiayi train station rear side, be there by 1pm.",
    "latitude": 23.47950746328136,
    "longitude": 120.43988562077047
  },
  {
    "date": "2023-03-26",
    "kennelTags": [
      "douliu-h3"
    ],
    "title": "The \"Peeping Hole\" Run",
    "runNumber": 167,
    "startTime": "11:30",
    "location": "Meet at Changhua train station at 11:30am",
    "latitude": 23.8741,
    "longitude": 120.57501
  },
  {
    "date": "2023-04-29",
    "kennelTags": [
      "douliu-h3"
    ],
    "runNumber": 168,
    "startTime": "13:00",
    "location": "Meet at LINNEI station at 1pm",
    "latitude": 23.759628775101724,
    "longitude": 120.6152123270865
  },
  {
    "date": "2023-06-24",
    "kennelTags": [
      "douliu-h3"
    ],
    "title": "\"The Trail is Dark and Full of Horrors\".",
    "runNumber": 170,
    "startTime": "17:30",
    "hares": "Hand Solo and The Underfucker",
    "location": "Meet: Changhua station front @5:30 pm",
    "latitude": 24.08134591428738,
    "longitude": 120.53836315023268
  },
  {
    "date": "2023-07-29",
    "kennelTags": [
      "douliu-h3"
    ],
    "runNumber": 171,
    "startTime": "13:00",
    "location": "Meet at Douliu train station by 13:00"
  },
  {
    "date": "2023-08-26",
    "kennelTags": [
      "douliu-h3"
    ],
    "runNumber": 172,
    "startTime": "13:00",
    "location": "Meet at Chiayi train station at 1pm. Rear exit",
    "latitude": 23.479632466601313,
    "longitude": 120.43983399509494
  },
  {
    "date": "2023-09-24",
    "kennelTags": [
      "douliu-h3"
    ],
    "runNumber": 173,
    "startTime": "13:00",
    "location": "Meet at Changhua Station at 1pm."
  },
  {
    "date": "2023-10-28",
    "kennelTags": [
      "douliu-h3"
    ],
    "runNumber": 174,
    "startTime": "12:00"
  },
  {
    "date": "2023-11-25",
    "kennelTags": [
      "douliu-h3"
    ],
    "runNumber": 175,
    "startTime": "12:00",
    "location": "Meet at Changhua station",
    "latitude": 23.9486552,
    "longitude": 120.6245445
  },
  {
    "date": "2023-12-23",
    "kennelTags": [
      "douliu-h3"
    ],
    "title": "Xmas Half Done Hash",
    "runNumber": 176,
    "startTime": "10:31",
    "hares": "Eh-Hole & *Art",
    "location": "Meet at Huatan train station at ~10:30 am . Hares away at 11.",
    "latitude": 24.025073487164317,
    "longitude": 120.5375073610713
  },
  {
    "date": "2024-01-27",
    "kennelTags": [
      "douliu-h3"
    ],
    "title": "\"Cum for the Rice, Stay for the Ploughing\"",
    "runNumber": 177,
    "startTime": "12:55",
    "hares": "Eh-Hole , Shut the Fedora Up, Sleeping Sausage",
    "location": "Shetou train station, outside & to the left.",
    "latitude": 23.89587939005374,
    "longitude": 120.58086141763262
  },
  {
    "date": "2024-02-24",
    "kennelTags": [
      "douliu-h3"
    ],
    "runNumber": 178,
    "startTime": "12:00",
    "hares": "Crampee Buxibum"
  },
  {
    "date": "2024-03-30",
    "kennelTags": [
      "douliu-h3"
    ],
    "title": "The \"3 Dogs & a Monkey\" run (#179)",
    "runNumber": 179,
    "startTime": "12:15",
    "hares": "Alfred Hitchfuck, Dirty Dick of Touliu",
    "location": "Yunlin Martyr's Shrine",
    "latitude": 23.705690279774267,
    "longitude": 120.60798815145542
  },
  {
    "date": "2024-06-29",
    "kennelTags": [
      "douliu-h3"
    ],
    "title": "The Border Crossers Run. 15th Analversary run (A-to-B)",
    "runNumber": 182,
    "startTime": "12:00",
    "hares": "Ewe Fucker, Shut the Fedora Up, Sleeping Sausage",
    "location": "Longteng Park",
    "latitude": 24.061899604669353,
    "longitude": 120.49191504704822
  },
  {
    "date": "2025-01-25",
    "kennelTags": [
      "douliu-h3"
    ],
    "title": "\"A Solo Turd's Journey\"",
    "runNumber": 189,
    "startTime": "12:55",
    "hares": "Hand Solo and  ...?",
    "location": "TBC, somewhere in Changhua hills",
    "latitude": 24.081215192676257,
    "longitude": 120.53807328740567
  },
  {
    "date": "2025-05-24",
    "kennelTags": [
      "douliu-h3"
    ],
    "title": "Jortspocalypse",
    "runNumber": 193,
    "startTime": "12:55",
    "hares": "Eh-Hole + Sleeping Sausage",
    "location": "Zhongquan Park, behind Changhua station",
    "latitude": 24.084830266301704,
    "longitude": 120.53619927068523
  },
  {
    "date": "2025-06-28",
    "kennelTags": [
      "douliu-h3"
    ],
    "title": "Frog Fucker's Revenge",
    "runNumber": 193,
    "startTime": "17:30",
    "hares": "Sleeping Sausage & Eh-Hole",
    "location": "Some temple, see map pin",
    "latitude": 23.886711548413757,
    "longitude": 120.61357660462812
  },
  {
    "date": "2025-07-26",
    "kennelTags": [
      "douliu-h3"
    ],
    "runNumber": 194,
    "startTime": "14:00",
    "location": "."
  },
  {
    "date": "2025-08-30",
    "kennelTags": [
      "douliu-h3"
    ],
    "runNumber": 195,
    "startTime": "12:30",
    "hares": "Crampee Buxibum",
    "location": "Chiayi",
    "latitude": 23.47907198102168,
    "longitude": 120.44117271156136
  },
  {
    "date": "2025-09-27",
    "kennelTags": [
      "douliu-h3"
    ],
    "runNumber": 196,
    "startTime": "12:00"
  },
  {
    "date": "2025-10-25",
    "kennelTags": [
      "douliu-h3"
    ],
    "runNumber": 197,
    "startTime": "12:00"
  },
  {
    "date": "2025-11-29",
    "kennelTags": [
      "douliu-h3"
    ],
    "runNumber": 198,
    "startTime": "12:00",
    "location": "TBA, watch FB for more"
  },
  {
    "date": "2025-12-27",
    "kennelTags": [
      "douliu-h3"
    ],
    "title": "Douliu's 200th run!",
    "runNumber": 200,
    "startTime": "12:00",
    "hares": "CBB & AHF",
    "location": "Chiayi somewhere, A-to-B",
    "latitude": 23.478570612705397,
    "longitude": 120.44071392437141
  },
  {
    "date": "2026-01-31",
    "kennelTags": [
      "douliu-h3"
    ],
    "runNumber": 201,
    "startTime": "12:00"
  },
  {
    "date": "2026-05-30",
    "kennelTags": [
      "douliu-h3"
    ],
    "title": "The Rumours run",
    "runNumber": 205,
    "startTime": "13:30",
    "location": "Chiayi city lake area"
  }
]
