[
  {
    "date": "2022-08-07",
    "kennelTags": [
      "fishhh"
    ],
    "title": "Run Virgin Run - FISHHH #1",
    "runNumber": 1,
    "startTime": "10:30",
    "hares": "Shut The Fedora Up, The Fucking Blessing/Curse",
    "location": "Lilin Park",
    "latitude": 24.233233023127916,
    "longitude": 120.71111965465012
  },
  {
    "date": "2022-09-18",
    "kennelTags": [
      "fishhh"
    ],
    "title": "\"Oh Shiggy!\" - FISHHH #2",
    "runNumber": 2,
    "startTime": "13:15",
    "hares": "Jack Off All Puppets, Shut the Fedora Up",
    "location": "Lilin Park (again) across the road from the station",
    "latitude": 24.233249478610546,
    "longitude": 120.71118758040663
  },
  {
    "date": "2022-10-23",
    "kennelTags": [
      "fishhh"
    ],
    "title": "No! Not In There!",
    "runNumber": 3,
    "startTime": "14:00",
    "hares": "Jack Off All Puppets",
    "location": "Wengming Park",
    "latitude": 24.258079995400177,
    "longitude": 120.72656222760905
  },
  {
    "date": "2022-11-20",
    "kennelTags": [
      "fishhh"
    ],
    "title": "#4 \"That Old Dog\"",
    "runNumber": 4,
    "startTime": "12:00",
    "hares": "STFU & JOAP",
    "location": "Shepi Sports Park, Fengyuan.",
    "latitude": 24.24543957324226,
    "longitude": 120.70482520262787
  },
  {
    "date": "2022-12-18",
    "kennelTags": [
      "fishhh"
    ],
    "title": "Harey Cherries A'Poppin'",
    "runNumber": 5,
    "startTime": "12:00",
    "hares": "Frog Fucker & Anywhere But my Shoes",
    "location": "At Sanjia Park, super convenient!",
    "latitude": 24.166319907576618,
    "longitude": 120.7067574462457
  },
  {
    "date": "2023-02-19",
    "kennelTags": [
      "fishhh"
    ],
    "title": "#6 Templetation",
    "runNumber": 6,
    "startTime": "12:30",
    "hares": "Shut The Fedora Up",
    "location": "5 mins from train station",
    "latitude": 24.256622897114053,
    "longitude": 120.71609802145461
  },
  {
    "date": "2023-03-19",
    "kennelTags": [
      "fishhh"
    ],
    "title": "#7",
    "runNumber": 7,
    "startTime": "12:15",
    "hares": "STFU & Charlie",
    "location": "North West Fengyuan, this temple: 水尾福德祠",
    "latitude": 24.261447150576963,
    "longitude": 120.73975533932722
  },
  {
    "date": "2023-04-23",
    "kennelTags": [
      "fishhh"
    ],
    "title": "Fat Bottomed Hares, You Make The Rockin' Chung Go Round. FISHHH #8",
    "runNumber": 8,
    "startTime": "12:30",
    "hares": "Frog Fucker, Greg  Thomas",
    "latitude": 24.212740031358,
    "longitude": 120.7059357488
  },
  {
    "date": "2023-06-18",
    "kennelTags": [
      "fishhh"
    ],
    "title": "FISHHH #9 \"Another Home Run\"",
    "runNumber": 9,
    "startTime": "14:00",
    "hares": "Anal Plug, Smelly Cat",
    "location": "Fire Park on Fengyuan Boulevard.",
    "latitude": 24.262179641982325,
    "longitude": 120.71353197455846
  },
  {
    "date": "2023-08-19",
    "kennelTags": [
      "fishhh"
    ],
    "title": "Midnight Marauders FISHHH #10",
    "runNumber": 10,
    "hares": "Shut The Fedora Up & Charlie",
    "location": "Near Fengyuan Train Station",
    "latitude": 24.254215290359586,
    "longitude": 120.72332982643454
  },
  {
    "date": "2023-11-12",
    "kennelTags": [
      "fishhh"
    ],
    "title": "FISHHH #11, \"Reed Carefully\"",
    "runNumber": 11,
    "startTime": "13:30",
    "hares": "Shut the Fedora Up",
    "location": "Temple/Kindy car park",
    "latitude": 24.26952645672656,
    "longitude": 120.72633624245839
  },
  {
    "date": "2023-11-26",
    "kennelTags": [
      "fishhh"
    ],
    "title": "FISHHH #12",
    "runNumber": 12,
    "startTime": "12:00",
    "latitude": 24.420581615838934,
    "longitude": 120.77389036574874
  },
  {
    "date": "2024-03-17",
    "kennelTags": [
      "fishhh"
    ],
    "title": "FISHHH #14, St. Pat's Day run",
    "runNumber": 14,
    "startTime": "13:30",
    "hares": "12 Step Blowgram (solo)",
    "location": "Carpark opposite Jiayang High School",
    "latitude": 24.266225588877575,
    "longitude": 120.58272985407412
  },
  {
    "date": "2024-06-23",
    "kennelTags": [
      "fishhh"
    ],
    "title": "The \"Way West Weird Workout\" run. (#15)",
    "runNumber": 15,
    "startTime": "13:00",
    "location": "Very close to Taichung Port train station."
  },
  {
    "date": "2025-01-19",
    "kennelTags": [
      "fishhh"
    ],
    "title": "FISHHH #17 - \"A Trail Worth Waiting For\"",
    "runNumber": 17,
    "startTime": "12:15",
    "hares": "12 Step Blowgram, Shut the Fedora Up",
    "location": "Wengzi Park"
  },
  {
    "date": "2025-06-01",
    "kennelTags": [
      "fishhh"
    ],
    "title": "Even lame hashes can hare (Tanks for coming)",
    "runNumber": 18,
    "startTime": "10:15",
    "hares": "STFU",
    "location": "Fengzhou Park, Shengang, northwest of Fengyuan",
    "latitude": 24.26584399562854,
    "longitude": 120.70031975917304
  },
  {
    "date": "2025-07-12",
    "kennelTags": [
      "fishhh"
    ],
    "title": "Mystery Hares! FISHHH #19 An Urban Night Trail FREE!",
    "runNumber": 19,
    "startTime": "18:31",
    "hares": "Frog Fucker, Psycho Mate",
    "location": "A-to-?\nFengyuan train station south west"
  },
  {
    "date": "2025-08-17",
    "kennelTags": [
      "fishhh"
    ],
    "title": "FISHHH #20, \"Swimmer La American has Reached Our Shores\"",
    "runNumber": 20,
    "startTime": "13:15",
    "hares": "Shut the Fedora Up",
    "location": "Small temple, southeast, over the river from Fengyuan Boulevard.",
    "latitude": 24.23636299273045,
    "longitude": 120.72661641443733
  },
  {
    "date": "2026-01-18",
    "kennelTags": [
      "fishhh"
    ],
    "title": "FISHHH #21, The Scenic Route",
    "runNumber": 21,
    "startTime": "12:00",
    "hares": "Shut the Fedora Up",
    "location": "Shepi Park, behind BaFang Night Market",
    "latitude": 24.245466766936847,
    "longitude": 120.70477740383187
  },
  {
    "date": "2026-06-19",
    "kennelTags": [
      "fishhh"
    ],
    "title": "FISHHH #22 Mystery Hare",
    "runNumber": 22,
    "startTime": "19:30",
    "hares": "Ghost Protocock, Hand Solo (DH3), Shut the Fedora Up",
    "location": "Songzhu train station front",
    "latitude": 24.180684634950342,
    "longitude": 120.7020048186281
  }
]
