[
  {
    "date": "2015-06-21",
    "kennelTags": [
      "madrid-h3"
    ],
    "runNumber": 2106,
    "hares": "ASH",
    "location": "El Gurugu",
    "startTime": "13:00",
    "locationUrl": "https://goo.gl/maps/ZLrLypS1Whn",
    "sourceUrl": "https://madridhhh.com/the-things-arent-what-they-seem-rn-ashh/",
    "description": "Things Aren´t What They Seem"
  },
  {
    "date": "2015-11-15",
    "kennelTags": [
      "madrid-h3"
    ],
    "runNumber": 2135,
    "hares": "ASH and Horsey C Minge",
    "location": "Olmeda de las Fuentes",
    "startTime": "13:00",
    "locationUrl": "https://goo.gl/maps/AZi5JvJFUYG2",
    "sourceUrl": "https://madridhhh.com/the-ash-has-a-birth-certificate-rn-ashh/",
    "description": "ASH has a Birth Certificate!!"
  },
  {
    "date": "2016-04-17",
    "kennelTags": [
      "madrid-h3"
    ],
    "runNumber": 2170,
    "hares": "ASHH and Gag Reflex ….and as I understand it…Caitlin No Name (Titris).",
    "location": "Rat access-friendly run site near Torrelaguna",
    "startTime": "13:00",
    "locationUrl": "https://goo.gl/maps/jR79aXrobx82",
    "sourceUrl": "https://madridhhh.com/the-rat-rn-that-never-was/"
  },
  {
    "date": "2016-06-12",
    "kennelTags": [
      "madrid-h3"
    ],
    "runNumber": 2182,
    "hares": "ASH",
    "location": "San Agustín de Guadalix",
    "startTime": "13:00",
    "locationUrl": "https://goo.gl/maps/wD7KbdzVUjJ2",
    "sourceUrl": "https://madridhhh.com/the-ash-rn-2016/"
  },
  {
    "date": "2017-01-29",
    "kennelTags": [
      "madrid-h3"
    ],
    "runNumber": 2221,
    "hares": "ASH and Extremely Ggrimm",
    "location": "Just north of El Vellón",
    "startTime": "13:00",
    "locationUrl": "https://goo.gl/maps/Xud6BMDA9w72",
    "sourceUrl": "https://madridhhh.com/the-chinese-new-year-rn-2017/"
  },
  {
    "date": "2017-10-22",
    "kennelTags": [
      "madrid-h3"
    ],
    "runNumber": 2269,
    "hares": "Sex Mex and Chilli Pepper",
    "location": "near Calle Ronda Flores 1, Aravaca",
    "startTime": "13:00",
    "latitude": 40.44862,
    "longitude": -3.766446,
    "locationUrl": "https://goo.gl/maps/soGcBEawExS2",
    "sourceUrl": "https://madridhhh.com/the-double-chinaman-rn/"
  },
  {
    "date": "2017-10-29",
    "kennelTags": [
      "madrid-h3"
    ],
    "runNumber": 2270,
    "hares": "Blow  Re Mi and Gag Reflex",
    "location": "Park near Hospital Universatario de Getafe",
    "startTime": "13:00",
    "latitude": 40.309767,
    "longitude": -3.742473,
    "locationUrl": "https://goo.gl/maps/gb69Z528A5s",
    "sourceUrl": "https://madridhhh.com/the-blow-me-gag-rn/"
  },
  {
    "date": "2017-10-31",
    "kennelTags": [
      "madrid-h3"
    ],
    "runNumber": 2271,
    "hares": "Scrambled Dag and Bush Warmer",
    "location": "Canillejas",
    "startTime": "21:00",
    "latitude": 40.309767,
    "longitude": -3.742473,
    "locationUrl": "https://goo.gl/maps/wxj73LG8wCq",
    "sourceUrl": "https://madridhhh.com/the-annal-sementery-rn/"
  },
  {
    "date": "2017-11-05",
    "kennelTags": [
      "madrid-h3"
    ],
    "runNumber": 2272,
    "hares": "Twice a Day and Speedy Gonzalez",
    "location": "Casa de Campo (near the lake)",
    "startTime": "13:00",
    "latitude": 40.417948,
    "longitude": -3.72985,
    "locationUrl": "https://goo.gl/maps/pF3TzMuC5Q72",
    "sourceUrl": "https://madridhhh.com/the-twice-as-speedy-rn/"
  },
  {
    "date": "2017-11-12",
    "kennelTags": [
      "madrid-h3"
    ],
    "runNumber": 2273,
    "hares": "Sex Mex and Chilli Pepper",
    "location": "Calle Prado de Torrejon, Pozuelo de Alarcón",
    "startTime": "13:00",
    "latitude": 40.450725,
    "longitude": -3.800291,
    "locationUrl": "https://goo.gl/maps/Z49bbLL7tZQ2",
    "sourceUrl": "https://madridhhh.com/the-second-double-chinaman-rn/"
  },
  {
    "date": "2017-11-19",
    "kennelTags": [
      "madrid-h3"
    ],
    "runNumber": 2274,
    "hares": "Snog the Goblin and Mr. Bean",
    "location": "Dehesa de Navalvillar Nature Reserve, Colmenar Viejo",
    "startTime": "13:00",
    "latitude": 40.689022,
    "longitude": -3.755834,
    "locationUrl": "https://goo.gl/maps/KrhZMTYSCL92",
    "sourceUrl": "https://madridhhh.com/the-good-the-bean-and-the-snogly-rn/"
  },
  {
    "date": "2017-11-26",
    "kennelTags": [
      "madrid-h3"
    ],
    "runNumber": 2275,
    "hares": "Lesbie Friends and Corkscrew",
    "location": "Boadilla del Monte",
    "startTime": "13:00",
    "latitude": 40.403036,
    "longitude": -3.875081,
    "sourceUrl": "https://madridhhh.com/the-memorial-rn/"
  },
  {
    "date": "2017-12-03",
    "kennelTags": [
      "madrid-h3"
    ],
    "runNumber": 2276,
    "hares": "Sex Mex and Something In My Mouth",
    "location": "Colonia Mingorrubio, El Pardo",
    "startTime": "13:00",
    "latitude": 40.5345504,
    "longitude": -3.783641,
    "sourceUrl": "https://madridhhh.com/the-sex-mex-sets-every-rn-rn/",
    "description": "Sex Mex sets every r*n"
  },
  {
    "date": "2017-12-10",
    "kennelTags": [
      "madrid-h3"
    ],
    "runNumber": 2277,
    "hares": "Scrambled Dag and Alien Sex",
    "location": "Alameda de Osuna",
    "startTime": "13:00",
    "latitude": 40.459097,
    "longitude": -3.593472,
    "locationUrl": "https://goo.gl/maps/bgZC3uz7Ns62",
    "sourceUrl": "https://madridhhh.com/santa-lucia-rn-2017/"
  },
  {
    "date": "2017-12-15",
    "kennelTags": [
      "madrid-h3"
    ],
    "runNumber": 2278,
    "hares": "Very Grimm and Big Foot",
    "location": "Grimm’s Palace – Valle de Cardos 34, Madrid",
    "startTime": "21:00",
    "latitude": 40.466995,
    "longitude": -3.71266,
    "locationUrl": "https://goo.gl/maps/Bzq8iznMZ6F2",
    "sourceUrl": "https://madridhhh.com/run-template-2/",
    "description": "Xmas Kebab"
  },
  {
    "date": "2017-12-17",
    "kennelTags": [
      "madrid-h3"
    ],
    "runNumber": 2279,
    "hares": "Gag Reflex, Tim Rat With A Sweet Snatch",
    "location": "El Pardo – near “Restaurante el faro”",
    "startTime": "13:00",
    "latitude": 40.514578,
    "longitude": -3.765303,
    "locationUrl": "https://goo.gl/maps/ae7XqTePc5N2",
    "sourceUrl": "https://madridhhh.com/tinsel-run-2017/",
    "description": "Tinsel R*n"
  },
  {
    "date": "2017-12-24",
    "kennelTags": [
      "madrid-h3"
    ],
    "runNumber": 2280,
    "hares": "Something In My Mouth, The Vagitarian",
    "location": "Calle Felipe Fraile, 4, “Bar Victoria” 28038 Madrid",
    "latitude": 40.396995,
    "longitude": -3.666076,
    "locationUrl": "https://goo.gl/maps/VxZveV6VhH22",
    "sourceUrl": "https://madridhhh.com/something-vagitarian/"
  },
  {
    "date": "2018-01-01",
    "kennelTags": [
      "madrid-h3"
    ],
    "runNumber": 2281,
    "hares": "Scrambled Dag",
    "location": "Alameda de Osuna",
    "startTime": "14:00",
    "latitude": 40.459097,
    "longitude": -3.593472,
    "locationUrl": "https://goo.gl/maps/bgZC3uz7Ns62",
    "sourceUrl": "https://madridhhh.com/new-years-run-2018/"
  },
  {
    "date": "2018-01-07",
    "kennelTags": [
      "madrid-h3"
    ],
    "runNumber": 2282,
    "hares": "Very Grimm",
    "location": "Calle Ofelia Nieto junction with calle de Villaamil",
    "startTime": "13:00",
    "latitude": 40.462775,
    "longitude": -3.708167,
    "locationUrl": "https://goo.gl/maps/Haqnsv99xdr",
    "sourceUrl": "https://madridhhh.com/three-kings-run-2018/"
  },
  {
    "date": "2018-01-12",
    "kennelTags": [
      "madrid-h3"
    ],
    "runNumber": 2283,
    "hares": "Mr. Bean",
    "location": "Calle de Alonso Saavedra, 10, Flat 3B",
    "startTime": "21:00",
    "latitude": 40.46995,
    "longitude": -3.66559,
    "locationUrl": "https://goo.gl/maps/jvcgV6y8euj",
    "sourceUrl": "https://madridhhh.com/burn-the-butt-curry-run/"
  },
  {
    "date": "2018-01-14",
    "kennelTags": [
      "madrid-h3"
    ],
    "runNumber": 2284,
    "hares": "Tim Rat With A Sweet Snatch",
    "location": "Avenida de Calvo Sotelo 93, Becerril de la Sierra",
    "startTime": "13:00",
    "latitude": 40.713289,
    "longitude": -3.999836,
    "locationUrl": "https://goo.gl/maps/83vmowfDbkn",
    "sourceUrl": "https://madridhhh.com/first-snowy-run/"
  },
  {
    "date": "2018-01-21",
    "kennelTags": [
      "madrid-h3"
    ],
    "runNumber": 2285,
    "hares": "Le Pro",
    "location": "Valdebernardo Metro Station",
    "startTime": "13:00",
    "latitude": 40.400672,
    "longitude": -3.62131,
    "locationUrl": "https://goo.gl/maps/3P5CSSjUfLv",
    "sourceUrl": "https://madridhhh.com/school/"
  },
  {
    "date": "2018-01-28",
    "kennelTags": [
      "madrid-h3"
    ],
    "runNumber": 2286,
    "hares": "Scarlett O’Hare, Sir Sir Culchie",
    "location": "La Berzosa",
    "startTime": "13:00",
    "latitude": 40.614728,
    "longitude": -3.928583,
    "locationUrl": "https://goo.gl/maps/hzwz6T6P3Lm",
    "sourceUrl": "https://madridhhh.com/culchie-clan-strikes-again-run/"
  },
  {
    "date": "2018-02-02",
    "kennelTags": [
      "madrid-h3"
    ],
    "runNumber": 2287,
    "hares": "El Sordo, Knob Job.",
    "location": "Calle Covarrubias, 22. Knob Job’s office. Closest Metro Alonso Martínez",
    "startTime": "21:00",
    "latitude": 40.430065,
    "longitude": -3.697612,
    "locationUrl": "https://goo.gl/maps/Lc7G1hWGXo52",
    "sourceUrl": "https://madridhhh.com/from-the-office-to-the-bar-run/",
    "description": "From The Office To The Bar"
  },
  {
    "date": "2018-02-04",
    "kennelTags": [
      "madrid-h3"
    ],
    "runNumber": 2288,
    "hares": "Cunt Dracula, Snog The Goblin, with the assistance of Ewan NN.",
    "location": "Edar, San Agustin De Guadalix. Carretera Nacional 1, 25C, 28750, Madrid",
    "startTime": "13:00",
    "latitude": 40.651684,
    "longitude": -3.593233,
    "locationUrl": "https://goo.gl/maps/8MgFcSfM1w12",
    "sourceUrl": "https://madridhhh.com/once-in-a-super-shitty-blue-moon-run/",
    "description": "Once in a Super Sh*tty Blue Moon"
  },
  {
    "date": "2018-02-11",
    "kennelTags": [
      "madrid-h3"
    ],
    "runNumber": 2289,
    "hares": "David NN., Very Grimm",
    "location": "Calle de Torrebeleña 20, Madrid.",
    "startTime": "13:00",
    "latitude": 40.478313,
    "longitude": -3.746125,
    "locationUrl": "https://goo.gl/maps/dvT2bW1M9EH2",
    "sourceUrl": "https://madridhhh.com/rear-entry-into-el-pardo-run/",
    "description": "Rear Entry Into El Pardo"
  },
  {
    "date": "2018-02-18",
    "kennelTags": [
      "madrid-h3"
    ],
    "runNumber": 2290,
    "hares": "Clara NN., The Vagitarian",
    "location": "Lago, Casa de Campo",
    "startTime": "13:00",
    "latitude": 40.418254,
    "longitude": -3.728968,
    "locationUrl": "https://goo.gl/maps/2pxkDpirT9E2",
    "sourceUrl": "https://madridhhh.com/chinese-new-year-refugee-run/",
    "description": "Chinese New Year"
  },
  {
    "date": "2018-02-25",
    "kennelTags": [
      "madrid-h3"
    ],
    "runNumber": 2291,
    "hares": "Extremely Grimm., Mr. Bean",
    "location": "Valdebas Oeste, Parque Felipe VI",
    "startTime": "13:00",
    "latitude": 40.488694,
    "longitude": -3.642536,
    "locationUrl": "https://goo.gl/maps/9f73pDHMSeUdCDta7",
    "sourceUrl": "https://madridhhh.com/bean-before-but-extremely-and-grimly-different-run/",
    "description": "Bean Before But Extremely and Grimly Different"
  },
  {
    "date": "2018-03-04",
    "kennelTags": [
      "madrid-h3"
    ],
    "runNumber": 2292,
    "hares": "Clara NN, Snog The Goblin",
    "location": "Poligono La toca",
    "startTime": "13:00",
    "latitude": 40.260684,
    "longitude": -3.759916,
    "locationUrl": "https://goo.gl/maps/f8ja39xRWxB2",
    "sourceUrl": "https://madridhhh.com/random-soggy-bottom-hashers-run/",
    "description": "Random Soggy Bottom Hashers"
  },
  {
    "date": "2018-03-09",
    "kennelTags": [
      "madrid-h3"
    ],
    "runNumber": 2293,
    "hares": "Big Foot, El Sordo",
    "location": "El Sordo’s Office, Calle Vallehermoso 82, bajo izqda, Madrid",
    "startTime": "21:00",
    "latitude": 40.438113,
    "longitude": -3.708245,
    "locationUrl": "https://goo.gl/maps/cZy8E6mvswM2",
    "sourceUrl": "https://madridhhh.com/chamberi-run/",
    "description": "Chamberi"
  },
  {
    "date": "2018-03-11",
    "kennelTags": [
      "madrid-h3"
    ],
    "runNumber": 2294,
    "hares": "Blow Re Mi, Gag Reflex, Not Half Bad",
    "location": "El Gurugú",
    "startTime": "13:00",
    "latitude": 40.456117,
    "longitude": -3.340271,
    "locationUrl": "https://goo.gl/maps/7oG2qSmqcZS2",
    "sourceUrl": "https://madridhhh.com/return-to-el-gurugu/",
    "description": "Return to El Gurugú"
  },
  {
    "date": "2018-03-18",
    "kennelTags": [
      "madrid-h3"
    ],
    "runNumber": 2295,
    "hares": "La Marquesa, Sir Sir Culchie",
    "location": "Hoyo de Manzanares area",
    "startTime": "13:00",
    "latitude": 40.616825,
    "longitude": -3.89976,
    "locationUrl": "https://goo.gl/maps/gaUNSUHr35t",
    "sourceUrl": "https://madridhhh.com/st-patricks-day-run-2018/",
    "description": "St. Patrick’s Day"
  },
  {
    "date": "2018-03-25",
    "kennelTags": [
      "madrid-h3"
    ],
    "runNumber": 2296,
    "hares": "Sex Mex",
    "location": "Pinar del Plantio (Majadahonda)",
    "startTime": "13:00",
    "latitude": 40.456444,
    "longitude": -3.85225,
    "locationUrl": "https://goo.gl/maps/MoN8sp47vdB2",
    "sourceUrl": "https://madridhhh.com/first-sunday-of-spring-run/",
    "description": "First Sunday of Spring"
  },
  {
    "date": "2018-04-01",
    "kennelTags": [
      "madrid-h3"
    ],
    "runNumber": 2297,
    "hares": "Cunt Dracula, Very Grimm",
    "location": "Near Laguna metro in southern Madrid (near corner of Calle de Alhambra and Avenida de Ángel San Briz)",
    "startTime": "13:00",
    "latitude": 40.399118,
    "longitude": -3.744197,
    "locationUrl": "https://goo.gl/maps/6BJ6z2Tdts22",
    "sourceUrl": "https://madridhhh.com/break-from-the-rain-run/",
    "description": "Break From The Rain"
  },
  {
    "date": "2018-04-06",
    "kennelTags": [
      "madrid-h3"
    ],
    "runNumber": 2298,
    "hares": "Blanka Wanka, Thunder Down Under",
    "location": "Corner of Calle de Francisco Silvela and Calle de Padilla, outside the wine bar ‘Vino Premier’ (Calle de Francisco Silvela 25) at 9 p.m. One of the hares lives above the wine bar, so you can leave your belongings in her apartment",
    "startTime": "21:00",
    "latitude": 40.431107,
    "longitude": -3.671566,
    "locationUrl": "https://goo.gl/maps/Hxp4AzBoEaJ2",
    "sourceUrl": "https://madridhhh.com/germans-have-no-sense-of-humour-run/",
    "description": "Germans Have No Sense of Humour … But They Have Good Beer"
  },
  {
    "date": "2018-04-08",
    "kennelTags": [
      "madrid-h3"
    ],
    "runNumber": 2299,
    "hares": "Mr. Bean, Speedy Gonzalez",
    "location": "Miraflores de la Sierra",
    "startTime": "13:00",
    "latitude": 40.814684,
    "longitude": -3.7841178,
    "locationUrl": "https://goo.gl/maps/9APPLxyDTrL2",
    "sourceUrl": "https://madridhhh.com/tacky-title-im-sorry/"
  },
  {
    "date": "2018-04-15",
    "kennelTags": [
      "madrid-h3"
    ],
    "runNumber": 2300,
    "hares": "Blanka Wanka, Pussy Galore",
    "location": "Chinchón",
    "startTime": "13:00",
    "latitude": 40.137447,
    "longitude": -3.424823,
    "locationUrl": "https://goo.gl/maps/6U37DJh3iYu",
    "sourceUrl": "https://madridhhh.com/wine-wildflowers-and-wankas-galore-run/",
    "description": "Wine, Wildflowers and Wankas Galore"
  },
  {
    "date": "2018-04-22",
    "kennelTags": [
      "madrid-h3"
    ],
    "runNumber": 2301,
    "hares": "Chatterproof, Donkey Punch, Tim Rat With a Sweet Snatch",
    "location": "El Boalo, next to Urbanización La Ponderosa de la Sierra",
    "startTime": "13:00",
    "latitude": 40.731096,
    "longitude": -3.923793,
    "locationUrl": "https://goo.gl/maps/TPbh7MedgqM2",
    "sourceUrl": "https://madridhhh.com/not-the-downhill-run/",
    "description": "Not-The-Downhill-R*n"
  },
  {
    "date": "2018-04-29",
    "kennelTags": [
      "madrid-h3"
    ],
    "runNumber": 2302,
    "hares": "Benny Hill, Sex Mex",
    "location": "Chinchón",
    "startTime": "13:00",
    "latitude": 40.134667,
    "longitude": -3.364917,
    "locationUrl": "https://goo.gl/maps/6U37DJh3iYu",
    "sourceUrl": "https://madridhhh.com/ching-chong-run/"
  },
  {
    "date": "2018-05-06",
    "kennelTags": [
      "madrid-h3"
    ],
    "runNumber": 2303,
    "hares": "Knob Job, Mr Bean, Speedy González",
    "location": "Parque de Los Cerros de Alcala, Alcala de Henares (gurugu area)",
    "startTime": "13:00",
    "latitude": 40.463701,
    "longitude": -3.360767,
    "locationUrl": "https://goo.gl/maps/HVddMJeJX7Q2",
    "sourceUrl": "https://madridhhh.com/come-hell-or-high-water-run/",
    "description": "Come Hell or High Water"
  },
  {
    "date": "2018-05-13",
    "kennelTags": [
      "madrid-h3"
    ],
    "runNumber": 2304,
    "hares": "Sir Sir Culchie, Something In My Mouth",
    "location": "Campamento Militar Hoyo de Manzanares",
    "startTime": "13:00",
    "latitude": 40.62476,
    "longitude": -3.8772,
    "locationUrl": "https://goo.gl/maps/btpXi8WQEKk",
    "sourceUrl": "https://madridhhh.com/the-eurovision-run/",
    "description": "Eurovision"
  },
  {
    "date": "2018-05-18",
    "kennelTags": [
      "madrid-h3"
    ],
    "runNumber": 2305,
    "hares": "Bush Warmer, Scrambled Dag",
    "location": "Coslada, Barrio del Puerto Metro Station",
    "startTime": "21:00",
    "latitude": 40.422478,
    "longitude": -3.56914,
    "locationUrl": "https://goo.gl/maps/ahtfsoJPypQ2",
    "sourceUrl": "https://madridhhh.com/may-mmmmm-run/",
    "description": "May MMMMM"
  },
  {
    "date": "2018-05-20",
    "kennelTags": [
      "madrid-h3"
    ],
    "runNumber": 2306,
    "hares": "All You Can Eat, El Sordo, Read Me My Rights (if the 3rd generation is in the mood to allow it)",
    "location": "Calle Encinar, Las Matas",
    "startTime": "13:00",
    "latitude": 40.555889,
    "longitude": -3.912556,
    "locationUrl": "https://goo.gl/maps/4qcpWzLYgx82",
    "sourceUrl": "https://madridhhh.com/three-generations-run/",
    "description": "Three Generations R*n"
  },
  {
    "date": "2018-05-27",
    "kennelTags": [
      "madrid-h3"
    ],
    "runNumber": 2307,
    "hares": "Lesbie Friends, Twice A Day",
    "location": "Rivas-Vaciamadrid",
    "startTime": "13:00",
    "latitude": 40.368523,
    "longitude": -3.524207,
    "locationUrl": "https://goo.gl/maps/vpfmHGRf6AR2",
    "sourceUrl": "https://madridhhh.com/lesbie-found-a-friend-run/",
    "description": "Lesbie Found a Friend"
  },
  {
    "date": "2018-06-01",
    "kennelTags": [
      "madrid-h3"
    ],
    "runNumber": 2308,
    "hares": "Big Foot, Very Grimm",
    "location": "Very Grimm’s Palace, Metro Valdezarza. Calle Valle de Cardos, 34",
    "startTime": "21:00",
    "latitude": 40.466986,
    "longitude": -3.712701,
    "locationUrl": "https://goo.gl/maps/nVfHZTzMzTT2",
    "sourceUrl": "https://madridhhh.com/the-very-big-run/",
    "description": "Very Big"
  },
  {
    "date": "2018-06-03",
    "kennelTags": [
      "madrid-h3"
    ],
    "runNumber": 2309,
    "hares": "Blow Re Mi, Gag Reflex, Mexican Trumping Bean",
    "location": "Moratalaz",
    "startTime": "13:00",
    "latitude": 40.411834,
    "longitude": -3.638776,
    "locationUrl": "https://goo.gl/maps/DQb2bb5GKkx",
    "sourceUrl": "https://madridhhh.com/what-could-possibly-go-wrong/"
  },
  {
    "date": "2018-06-10",
    "kennelTags": [
      "madrid-h3"
    ],
    "runNumber": 2310,
    "hares": "Cunt Dracula, Snog The Goblin",
    "location": "Camino de la Ermita, s/n, Los Santos de la Humosa, Madrid",
    "startTime": "13:00",
    "latitude": 40.528921,
    "longitude": -3.278708,
    "locationUrl": "https://goo.gl/maps/b7Byebmpp762",
    "sourceUrl": "https://madridhhh.com/snog-the-counts-scrap-heap-challenge-run/",
    "description": "Snog The C*unt’s Scrap Heap Challenge"
  },
  {
    "date": "2018-06-17",
    "kennelTags": [
      "madrid-h3"
    ],
    "runNumber": 2311,
    "hares": "Gobble 07, NN Friend",
    "location": "Retamar Bridge, Las Rozas",
    "startTime": "13:00",
    "latitude": 40.520333,
    "longitude": -3.941306,
    "locationUrl": "https://goo.gl/maps/AvsiTc7QCfP2)",
    "sourceUrl": "https://madridhhh.com/the-pied-piper-of-retamar/",
    "description": "Pied Pipers of Retamar"
  },
  {
    "date": "2018-06-24",
    "kennelTags": [
      "madrid-h3"
    ],
    "runNumber": 2312,
    "hares": "Marina O’Hare, Sir Sir Culchie",
    "location": "Parque de las Colinas, Hoyo de Manzanares area.",
    "startTime": "13:00",
    "latitude": 40.601639,
    "longitude": -3.915111,
    "locationUrl": "https://goo.gl/maps/m9kQMeLyStp)",
    "sourceUrl": "https://madridhhh.com/sun-is-here-to-stay/",
    "description": "Sun Is Here To Stay"
  },
  {
    "date": "2018-07-01",
    "kennelTags": [
      "madrid-h3"
    ],
    "runNumber": 2313,
    "hares": "Cunt Dracula, Very Grimm",
    "location": "La Moraleja, golf course & Valdefuentes area.",
    "startTime": "13:00",
    "latitude": 40.500752,
    "longitude": -3.6358,
    "locationUrl": "https://goo.gl/maps/EaLtLUW4hqo",
    "sourceUrl": "https://madridhhh.com/grimm-cnt-run/",
    "description": "Grimm C*nt"
  },
  {
    "date": "2018-07-15",
    "kennelTags": [
      "madrid-h3"
    ],
    "runNumber": 2316,
    "hares": "Something In My Mouth",
    "location": "Valdelatas, Universidad Autonoma area.",
    "startTime": "13:00",
    "latitude": 40.533616,
    "longitude": -3.69272,
    "locationUrl": "https://goo.gl/maps/u1QdGJiAwK92",
    "sourceUrl": "https://madridhhh.com/the-2018-valdelatas-summer-run/",
    "description": "2018 Valdelatas Summer"
  },
  {
    "date": "2018-07-20",
    "kennelTags": [
      "madrid-h3"
    ],
    "runNumber": 2317,
    "hares": "The Vagitarian",
    "location": "Ciudad Universitaria Metro Station, line 6.",
    "startTime": "21:00",
    "latitude": 40.44367,
    "longitude": -3.726836,
    "locationUrl": "https://goo.gl/maps/LHFfvMzJy5n",
    "sourceUrl": "https://madridhhh.com/running-a-temperature-run/",
    "description": "Running a Temperature"
  },
  {
    "date": "2018-07-22",
    "kennelTags": [
      "madrid-h3"
    ],
    "runNumber": 2318,
    "hares": "Very Grimm",
    "location": "Very Grimm’s Palace, Metro Valdezarza. Calle Valle de Cardos, 34",
    "startTime": "13:00",
    "latitude": 40.466986,
    "longitude": -3.712701,
    "locationUrl": "https://goo.gl/maps/nVfHZTzMzTT2",
    "sourceUrl": "https://madridhhh.com/grimms-house-is-the-best-cp-run/",
    "description": "Grimm’s house is the best CP"
  },
  {
    "date": "2018-07-28",
    "kennelTags": [
      "madrid-h3"
    ],
    "runNumber": 2319,
    "hares": "Tim Rat With A Sweet Snatch",
    "location": "Calle Cerrillo 14, Becerril de la Sierra.",
    "startTime": "13:00",
    "latitude": 40.704382,
    "longitude": -3.991434,
    "locationUrl": "https://goo.gl/maps/4GeK5C56C2t)",
    "sourceUrl": "https://madridhhh.com/2018-pool-party-run/",
    "description": "2018 Pool Party"
  },
  {
    "date": "2018-08-03",
    "kennelTags": [
      "madrid-h3"
    ],
    "runNumber": 2320,
    "hares": "Scrambled Dag",
    "location": "Parque Felix Rodriguez de la Fuente, Avenida de la Paz Metro Station, Line 4.",
    "startTime": "21:00",
    "latitude": 40.452255,
    "longitude": -3.664275,
    "locationUrl": "https://goo.gl/maps/YosT5QzpwYE2",
    "sourceUrl": "https://madridhhh.com/core-processor-run/",
    "description": "Core Processor"
  },
  {
    "date": "2018-08-05",
    "kennelTags": [
      "madrid-h3"
    ],
    "runNumber": 2321,
    "hares": "Not Half Bad, Sex Mex",
    "location": "El Pardo (First Car Park)",
    "startTime": "13:00",
    "latitude": 40.496412,
    "longitude": -3.758615,
    "locationUrl": "https://goo.gl/maps/TPH2n5Xudn32",
    "sourceUrl": "https://madridhhh.com/not-half-mex-run/",
    "description": "Not Half Mex"
  },
  {
    "date": "2018-08-12",
    "kennelTags": [
      "madrid-h3"
    ],
    "runNumber": 2322,
    "hares": "Bush Warmer",
    "location": "Quinta de los Molinos, Suanzes Metro.",
    "latitude": 40.443674,
    "longitude": -3.631125,
    "locationUrl": "https://goo.gl/maps/aycfzCCxe8B2",
    "sourceUrl": "https://madridhhh.com/gymkhana-run/",
    "description": "Gymkhana"
  },
  {
    "date": "2018-08-19",
    "kennelTags": [
      "madrid-h3"
    ],
    "runNumber": 2323,
    "hares": "Not Half Bad, Sex Mex",
    "location": "Colonia Mingorrubio, El Pardo",
    "startTime": "13:00",
    "latitude": 40.5345504,
    "longitude": -3.783641,
    "sourceUrl": "https://madridhhh.com/twice-a-hare-run/",
    "description": "Twice A Hare"
  },
  {
    "date": "2018-08-26",
    "kennelTags": [
      "madrid-h3"
    ],
    "runNumber": 2324,
    "hares": "Blanca Wanka, Not Half Bad",
    "location": "near Lago, Casa de Campo",
    "startTime": "13:00",
    "latitude": 40.417948,
    "longitude": -3.72985,
    "locationUrl": "https://goo.gl/maps/2pxkDpirT9E2",
    "sourceUrl": "https://madridhhh.com/mr-bean-is-on-duty-run/",
    "description": "Mr. Bean Is On Duty"
  },
  {
    "date": "2018-09-02",
    "kennelTags": [
      "madrid-h3"
    ],
    "runNumber": 2325,
    "hares": "Big Foot, Very Grimm",
    "location": "El Pardo, Pitis entrance.",
    "startTime": "13:00",
    "latitude": 40.493644,
    "longitude": -3.728304,
    "locationUrl": "https://goo.gl/maps/9DwYiiqJQXH2",
    "sourceUrl": "https://madridhhh.com/almost-very-grimm-birthday-run/",
    "description": "Almost Very Grimm Birthday"
  },
  {
    "date": "2018-09-07",
    "kennelTags": [
      "madrid-h3"
    ],
    "runNumber": 2326,
    "hares": "The Unsinkable, Twice A Day",
    "location": "Parque Cuña Verde de Moratalaz, Avenida del doctor García Tapia 39.",
    "startTime": "21:00",
    "latitude": 40.412222,
    "longitude": -3.652472,
    "locationUrl": "https://goo.gl/maps/FiFFNFP1fLo",
    "sourceUrl": "https://madridhhh.com/ffffriday-run-with-nice-temperature/",
    "description": "FFFFriday R*n With Nice Temperature"
  },
  {
    "date": "2018-09-09",
    "kennelTags": [
      "madrid-h3"
    ],
    "runNumber": 2327,
    "hares": "Big Foot, Knob Job",
    "location": "Knob Job’s Palace, Barajas (Alameda de Osuna metro)",
    "startTime": "13:00",
    "latitude": 40.466509,
    "longitude": -3.59337,
    "locationUrl": "https://goo.gl/maps/H7b8opk9xNo",
    "sourceUrl": "https://madridhhh.com/knobbie-pool-party-run/",
    "description": "Knobbie Pool Party R*n"
  },
  {
    "date": "2018-09-16",
    "kennelTags": [
      "madrid-h3"
    ],
    "runNumber": 2328,
    "hares": "Benny Hill, Something In My Mouth",
    "location": "Vicálvaro, near Valdebernardo metro station.",
    "startTime": "13:00",
    "latitude": 40.397228,
    "longitude": -3.617576,
    "locationUrl": "https://goo.gl/maps/LvKG4YWvDXA2",
    "sourceUrl": "https://madridhhh.com/cerro-almodovar-run/",
    "description": "Cerro Almodóvar"
  },
  {
    "date": "2018-09-23",
    "kennelTags": [
      "madrid-h3"
    ],
    "runNumber": 2329,
    "hares": "Alien Sex, Lady Di",
    "location": "El Capricho metro station (line 5).",
    "startTime": "13:00",
    "latitude": 40.45327,
    "longitude": -3.594273,
    "locationUrl": "https://goo.gl/maps/pgBoLrur3bK2",
    "sourceUrl": "https://madridhhh.com/the-lady-godmothers-memorial-rn/",
    "description": "Lady Godmother’s Memorial"
  },
  {
    "date": "2018-09-30",
    "kennelTags": [
      "madrid-h3"
    ],
    "runNumber": 2330,
    "hares": "Mr. Bean",
    "location": "Dehesa de Navalvillar, Colmenar Viejo.",
    "startTime": "13:00",
    "latitude": 40.713764,
    "longitude": -3.759435,
    "locationUrl": "https://goo.gl/maps/HxNDNWzTpqn",
    "sourceUrl": "https://madridhhh.com/on-location-with-the-good-the-bad-and-the-ugly-run/",
    "description": "On Location With The Good, The Bad And The Ugly"
  },
  {
    "date": "2018-10-05",
    "kennelTags": [
      "madrid-h3"
    ],
    "runNumber": 2331,
    "hares": "Scrambled Dag",
    "location": "Parque Felix Rodriguez de la Fuente, Avenida de la Paz Metro Station, Line 4.",
    "startTime": "21:00",
    "latitude": 40.452255,
    "longitude": -3.664275,
    "locationUrl": "https://goo.gl/maps/YosT5QzpwYE2",
    "sourceUrl": "https://madridhhh.com/parvulesco-run/",
    "description": "Parvulesco"
  },
  {
    "date": "2018-10-07",
    "kennelTags": [
      "madrid-h3"
    ],
    "runNumber": 2332,
    "hares": "Doug NN, Sneaky Withdrawal",
    "location": "Casa de Campo",
    "startTime": "13:00",
    "latitude": 40.411167,
    "longitude": -3.7565,
    "locationUrl": "https://goo.gl/maps/5pk8StKRfTR2",
    "sourceUrl": "https://madridhhh.com/learning-how-to-be-a-hare-the-hard-way-run/",
    "description": "Learning How To Be A Hare The Hard Way"
  },
  {
    "date": "2018-10-14",
    "kennelTags": [
      "madrid-h3"
    ],
    "runNumber": 2333,
    "hares": "Tim Rat With A Sweet Snatch",
    "location": "Moralzarzal",
    "startTime": "13:00",
    "latitude": 40.673978,
    "longitude": -3.978153,
    "locationUrl": "https://goo.gl/maps/3nkqMGrTtqu).",
    "sourceUrl": "https://madridhhh.com/hardest-village-to-pronounce-run/",
    "description": "Hardest Village To Pronounce"
  },
  {
    "date": "2018-10-21",
    "kennelTags": [
      "madrid-h3"
    ],
    "runNumber": 2334,
    "hares": "Cunt Chaser, Jingle Balls",
    "location": "Near Polideportivo Municipal Dehesa Boyal, San Sebastián de Los Reyes",
    "startTime": "13:00",
    "latitude": 40.568793,
    "longitude": -3.630358,
    "locationUrl": "https://goo.gl/maps/2db5HAHw2D92",
    "sourceUrl": "https://madridhhh.com/chase-my-balls-run/",
    "description": "Chase My Balls"
  },
  {
    "date": "2018-10-28",
    "kennelTags": [
      "madrid-h3"
    ],
    "runNumber": 2335,
    "hares": "Lesbie Friends, Pussy Galore",
    "location": "Torrelodones, next to the Atalaya",
    "startTime": "13:00",
    "latitude": 40.5715,
    "longitude": -3.934389,
    "locationUrl": "https://goo.gl/maps/SndY86wGJX42),",
    "sourceUrl": "https://madridhhh.com/the-oktoberfest-brings-lesbies-galore-rn/",
    "description": "Oktoberfest brings Lesbies Galore"
  },
  {
    "date": "2018-10-28",
    "kennelTags": [
      "madrid-h3"
    ],
    "runNumber": 2336,
    "hares": "Knob Job, Scrambled Dag",
    "location": "Canillejas Metro Station",
    "startTime": "21:00",
    "latitude": 40.450333,
    "longitude": -3.608306,
    "locationUrl": "https://goo.gl/maps/YaesxchEwx32",
    "sourceUrl": "https://madridhhh.com/annal-sementery-run-2018/",
    "description": "Annal Sementery"
  },
  {
    "date": "2018-11-04",
    "kennelTags": [
      "madrid-h3"
    ],
    "runNumber": 2337,
    "hares": "Benny Hill",
    "location": "La Almudena cementery, La Elipa metro station",
    "startTime": "13:00",
    "latitude": 40.425658,
    "longitude": -3.647792,
    "locationUrl": "https://goo.gl/maps/23bnT8K3khJ2",
    "sourceUrl": "https://madridhhh.com/potters-field-run/",
    "description": "Potter’s Field"
  },
  {
    "date": "2018-11-11",
    "kennelTags": [
      "madrid-h3"
    ],
    "runNumber": 2338,
    "hares": "Speedy Gonzalez, Twice A Day",
    "location": "La Jarosa reservoir, near Guadarrama.",
    "startTime": "13:00",
    "latitude": 40.66642,
    "longitude": -4.132109,
    "locationUrl": "https://goo.gl/maps/N1TBSxSWSWD2).",
    "sourceUrl": "https://madridhhh.com/where-is-the-waterfall-run/",
    "description": "Where The #$@&%* Is The Waterfall"
  },
  {
    "date": "2018-11-18",
    "kennelTags": [
      "madrid-h3"
    ],
    "runNumber": 2339,
    "hares": "Cunt Dracula, Tim Rat",
    "location": "La Cabrera village.",
    "startTime": "13:00",
    "latitude": 40.866554,
    "longitude": -3.629733,
    "locationUrl": "https://goo.gl/maps/mu3uNCRTtFk",
    "sourceUrl": "https://madridhhh.com/no-car-no-hash-run/",
    "description": "No Car – No Hash"
  },
  {
    "date": "2018-11-25",
    "kennelTags": [
      "madrid-h3"
    ],
    "runNumber": 2340,
    "hares": "Cunt Chaser, Snog The Goblin",
    "location": "Near Polideportivo Municipal Dehesa Boyal, San Sebastián de Los Reyes.",
    "startTime": "13:00",
    "latitude": 40.567261,
    "longitude": -3.633923,
    "locationUrl": "https://goo.gl/maps/FRFm9MnBdAx",
    "sourceUrl": "https://madridhhh.com/st-andrews-thanksgeein-run/",
    "description": "St. Andrews Thanksgeein’"
  },
  {
    "date": "2018-12-02",
    "kennelTags": [
      "madrid-h3"
    ],
    "runNumber": 2341,
    "hares": "Chatterproof, Lesbie Friends",
    "location": "Poligono Industrial San Agustin de Guadalix",
    "startTime": "13:00",
    "latitude": 40.69075,
    "longitude": -3.609972,
    "locationUrl": "https://goo.gl/maps/xUzezPwuK4s).",
    "sourceUrl": "https://madridhhh.com/dont-go-chasin-waterfalls/",
    "description": "Don’t Go Chasin’ Waterfalls"
  },
  {
    "date": "2018-12-07",
    "kennelTags": [
      "madrid-h3"
    ],
    "runNumber": 2342,
    "hares": "Very Grimm",
    "location": "El Sordo’s Office, Calle Vallehermoso 82, bajo izqda, Madrid",
    "startTime": "21:00",
    "latitude": 40.438113,
    "longitude": -3.708245,
    "locationUrl": "https://goo.gl/maps/cZy8E6mvswM2",
    "sourceUrl": "https://madridhhh.com/xmas-kebab-run-2018/",
    "description": "Xmas Burrito"
  },
  {
    "date": "2018-12-09",
    "kennelTags": [
      "madrid-h3"
    ],
    "runNumber": 2343,
    "hares": "Alien Sex, Scrambled Dag",
    "location": "Alameda de Osuna",
    "startTime": "13:00",
    "latitude": 40.459097,
    "longitude": -3.593472,
    "locationUrl": "https://goo.gl/maps/bgZC3uz7Ns62",
    "sourceUrl": "https://madridhhh.com/santa-lucia-run-2018/",
    "description": "Santa Lucia"
  },
  {
    "date": "2018-12-16",
    "kennelTags": [
      "madrid-h3"
    ],
    "runNumber": 2344,
    "hares": "Gag Reflex, The Vagitarian.",
    "location": "First Car Park in el Pardo",
    "startTime": "13:00",
    "latitude": 40.496864,
    "longitude": -3.758909,
    "locationUrl": "https://goo.gl/maps/KVLzhye5D2U2",
    "sourceUrl": "https://madridhhh.com/oh-cum-ye-unfaithful-tinsel-run/",
    "description": "Oh Cum Ye Unfaithful Tinsel"
  },
  {
    "date": "2018-12-23",
    "kennelTags": [
      "madrid-h3"
    ],
    "runNumber": 2345,
    "hares": "The Vagitarian",
    "location": "Plaza del Conde del Valle Suchil. Calle Rodrigez de San Pedro, 9",
    "startTime": "13:00",
    "latitude": 40.431386,
    "longitude": -3.707113,
    "locationUrl": "https://goo.gl/maps/zHofTPbZ7oy",
    "sourceUrl": "https://madridhhh.com/god-rest-ye-merry-vagitarian-run/",
    "description": "God Rest Ye Merry Vagitarian"
  },
  {
    "date": "2018-12-30",
    "kennelTags": [
      "madrid-h3"
    ],
    "runNumber": 2346,
    "hares": "Big Foot, Very Grimm",
    "location": "Very Grimm’s Palace, Metro Valdezarza. Calle Valle de Cardos, 34",
    "startTime": "13:00",
    "latitude": 40.466986,
    "longitude": -3.712701,
    "locationUrl": "https://goo.gl/maps/nVfHZTzMzTT2",
    "sourceUrl": "https://madridhhh.com/last-run-of-2018/",
    "description": "Last R*n Of 2018"
  },
  {
    "date": "2019-01-01",
    "kennelTags": [
      "madrid-h3"
    ],
    "runNumber": 2347,
    "hares": "Alien Sex, Scrambled Dag",
    "location": "Alameda de Osuna",
    "startTime": "14:00",
    "latitude": 40.459097,
    "longitude": -3.593472,
    "locationUrl": "https://goo.gl/maps/bgZC3uz7Ns62",
    "sourceUrl": "https://madridhhh.com/new-years-run-2019/",
    "description": "New Year’s R*n"
  },
  {
    "date": "2019-01-06",
    "kennelTags": [
      "madrid-h3"
    ],
    "runNumber": 2348,
    "hares": "Speedy Gonzalez",
    "location": "Parque del Oeste, Arguelles metro station",
    "startTime": "13:00",
    "latitude": 40.42797,
    "longitude": -3.723628,
    "locationUrl": "https://goo.gl/maps/njNMwzygrDr",
    "sourceUrl": "https://madridhhh.com/speedy-run-in-madrid-rio-parks/",
    "description": "Speedy R*n In Madrid Rio Parks"
  },
  {
    "date": "2019-01-13",
    "kennelTags": [
      "madrid-h3"
    ],
    "runNumber": 2349,
    "hares": "Hector NN, Icky Sticky Sauna",
    "location": "Car Park in calle Sierra Morena (Las Rozas), next to Centro Escolar Balder",
    "startTime": "13:00",
    "latitude": 40.55129,
    "longitude": -3.903613,
    "locationUrl": "https://goo.gl/maps/q2yB4THWpMp",
    "sourceUrl": "https://madridhhh.com/shitty-inexperienced-hares-run/",
    "description": "Shitty Inexperienced Hares"
  },
  {
    "date": "2019-01-20",
    "kennelTags": [
      "madrid-h3"
    ],
    "runNumber": 2350,
    "hares": "Scarlett O’Hare, Sir Sir Culchie",
    "location": "La Berzosa",
    "startTime": "13:00",
    "latitude": 40.614728,
    "longitude": -3.928583,
    "locationUrl": "https://goo.gl/maps/hzwz6T6P3Lm",
    "sourceUrl": "https://madridhhh.com/very-experienced-hares-run/",
    "description": "Very Experienced Hares"
  },
  {
    "date": "2019-01-27",
    "kennelTags": [
      "madrid-h3"
    ],
    "runNumber": 2351,
    "hares": "Blow Re Mi, Sneaky Withdrawal",
    "location": "El Pardo, Pitis entrance.",
    "startTime": "13:00",
    "latitude": 40.493644,
    "longitude": -3.728304,
    "locationUrl": "https://goo.gl/maps/9DwYiiqJQXH2",
    "sourceUrl": "https://madridhhh.com/sneaky-with-mi-run/",
    "description": "Sneaky With Mi"
  },
  {
    "date": "2019-02-03",
    "kennelTags": [
      "madrid-h3"
    ],
    "runNumber": 2352,
    "hares": "Chatterproof, Lesbie Friends",
    "location": "Casa de Campo, Colonia de los Angeles entrance.",
    "startTime": "13:00",
    "latitude": 40.412508,
    "longitude": -3.779128,
    "locationUrl": "https://goo.gl/maps/QVmpJDhkkkm",
    "sourceUrl": "https://madridhhh.com/froggy-beef-lips-run/"
  },
  {
    "date": "2019-02-08",
    "kennelTags": [
      "madrid-h3"
    ],
    "runNumber": 2353,
    "hares": "Very Grimm",
    "location": "Very Grimm’s Palace, Metro Valdezarza. Calle Valle de Cardos, 34",
    "startTime": "21:00",
    "latitude": 40.466986,
    "longitude": -3.712701,
    "locationUrl": "https://goo.gl/maps/nVfHZTzMzTT2",
    "sourceUrl": "https://madridhhh.com/belated-friday-run/",
    "description": "Belated Friday"
  },
  {
    "date": "2019-02-10",
    "kennelTags": [
      "madrid-h3"
    ],
    "runNumber": 2354,
    "hares": "Big Foot, The Vagitarian",
    "location": "Valdemoro",
    "latitude": 40.191352,
    "longitude": -3.661287,
    "locationUrl": "https://goo.gl/maps/2XnFxV1gU5L2",
    "sourceUrl": "https://madridhhh.com/chinese-new-year-run-2019/",
    "description": "Chinese New Year"
  },
  {
    "date": "2019-02-17",
    "kennelTags": [
      "madrid-h3"
    ],
    "runNumber": 2355,
    "hares": "Gobble 07, Paulina NN",
    "location": "Las Rozas, next to Retamar Bridge",
    "latitude": 40.520519,
    "longitude": -3.938951,
    "locationUrl": "https://goo.gl/maps/AvsiTc7QCfP2)",
    "sourceUrl": "https://madridhhh.com/refugee-wiz-run/",
    "description": "Refugee Wiz"
  },
  {
    "date": "2019-02-24",
    "kennelTags": [
      "madrid-h3"
    ],
    "runNumber": 2357,
    "hares": "Gag Reflex, Something In My Mouth",
    "location": "El Pardo – near “Restaurante el faro”",
    "latitude": 40.515307,
    "longitude": -3.763068,
    "locationUrl": "https://goo.gl/maps/2XQCuFUUuMy.",
    "sourceUrl": "https://madridhhh.com/from-javea-to-el-pardo-run/",
    "description": "From Javea To El Pardo"
  },
  {
    "date": "2019-03-01",
    "kennelTags": [
      "madrid-h3"
    ],
    "runNumber": 2358,
    "hares": "Scrambled Dag",
    "location": "Las Tablas metro station",
    "startTime": "21:00",
    "latitude": 40.508307,
    "longitude": -3.669376,
    "locationUrl": "https://goo.gl/maps/GNqJGkFhRHB2",
    "sourceUrl": "https://madridhhh.com/no-quiz-tonight-run/",
    "description": "No Quiz Night Tonight"
  },
  {
    "date": "2019-03-03",
    "kennelTags": [
      "madrid-h3"
    ],
    "runNumber": 2359,
    "hares": "Cunt Dracula, Lesbie Friends",
    "location": "Patones de abajo",
    "startTime": "13:00",
    "latitude": 40.858535,
    "longitude": -3.487018,
    "locationUrl": "https://goo.gl/maps/MmbwatJUc9J2",
    "sourceUrl": "https://madridhhh.com/letsbe-cnts-run/",
    "description": "Letsbe C*nts"
  },
  {
    "date": "2019-03-10",
    "kennelTags": [
      "madrid-h3"
    ],
    "runNumber": 2360,
    "hares": "Big Foot, Speedy Gonzalez",
    "location": "Near Calle Ronda Flores 13, Aravaca",
    "startTime": "13:00",
    "latitude": 40.448861,
    "longitude": -3.765306,
    "locationUrl": "https://goo.gl/maps/N21HTgMqeGS2)",
    "sourceUrl": "https://madridhhh.com/bs-run/",
    "description": "B.S."
  },
  {
    "date": "2019-03-17",
    "kennelTags": [
      "madrid-h3"
    ],
    "runNumber": 2361,
    "hares": "Sir Sir Culchie and Marina O’Hare",
    "location": "Hoyo de Manzanares, Academia Militar",
    "startTime": "13:00",
    "latitude": 40.624356,
    "longitude": -3.882048,
    "locationUrl": "https://goo.gl/maps/btpXi8WQEKk",
    "sourceUrl": "https://madridhhh.com/st-paddys-run-2019/",
    "description": "St Paddy’s"
  },
  {
    "date": "2019-03-24",
    "kennelTags": [
      "madrid-h3"
    ],
    "runNumber": 2362,
    "hares": "Gobble 07, Paulina NN",
    "location": "Las Matas",
    "startTime": "13:00",
    "latitude": 40.56855,
    "longitude": -3.888166,
    "locationUrl": "https://goo.gl/maps/2SNRXNAjft12)",
    "sourceUrl": "https://madridhhh.com/last-minute-run/",
    "description": "Last Minute"
  },
  {
    "date": "2019-03-31",
    "kennelTags": [
      "madrid-h3"
    ],
    "runNumber": 2363,
    "hares": "Bush Warmer, Scrambled Dag",
    "location": "Montecarmelo",
    "startTime": "13:00",
    "latitude": 40.506835,
    "longitude": -3.70668,
    "locationUrl": "https://goo.gl/maps/qT1j2VHSHLo",
    "sourceUrl": "https://madridhhh.com/the-easy-cum-easy-go-metro-run/",
    "description": "Easy Cum Easy Go"
  },
  {
    "date": "2019-04-05",
    "kennelTags": [
      "madrid-h3"
    ],
    "runNumber": 2364,
    "hares": "Not Half Bad, The Vagitarian",
    "location": "Not Half Bad’s bachelor pad: Calle Valverde 40, First Floor IZQDA (left)",
    "latitude": 40.423168,
    "longitude": -3.701546,
    "locationUrl": "https://goo.gl/maps/YMa9mBh4Uhw",
    "sourceUrl": "https://madridhhh.com/2019-red-dress-friday-run/",
    "description": "2019 Red Dress Friday"
  },
  {
    "date": "2019-04-07",
    "kennelTags": [
      "madrid-h3"
    ],
    "runNumber": 2365,
    "hares": "All You Can Eat, Bottoms Up, El Sordo",
    "location": "Parque del Oeste (Casa de Campo)",
    "startTime": "14:00",
    "latitude": 40.426509,
    "longitude": -3.724779,
    "locationUrl": "https://goo.gl/maps/HoW8eGfYzMG2",
    "sourceUrl": "https://madridhhh.com/visiting-berks-hash-run/",
    "description": "Visiting Berks Hash"
  },
  {
    "date": "2019-04-14",
    "kennelTags": [
      "madrid-h3"
    ],
    "runNumber": 2366,
    "hares": "Corkscrew, Snog The Goblin",
    "location": "Boadilla del Monte",
    "startTime": "13:00",
    "latitude": 40.403036,
    "longitude": -3.875081,
    "locationUrl": "https://goo.gl/maps/Six7bgMs9PJ2",
    "sourceUrl": "https://madridhhh.com/screw-the-goblin-run/",
    "description": "Screw The Goblin"
  },
  {
    "date": "2019-04-21",
    "kennelTags": [
      "madrid-h3"
    ],
    "runNumber": 2367,
    "hares": "Cunt Dracula, Very Grimm",
    "location": "Near Laguna metro in southern Madrid (near corner of Calle de Alhambra and Avenida de Ángel San Briz)",
    "startTime": "13:00",
    "latitude": 40.399118,
    "longitude": -3.744197,
    "locationUrl": "https://goo.gl/maps/6BJ6z2Tdts22",
    "sourceUrl": "https://madridhhh.com/the-good-the-bad-and-the-grimm-run/",
    "description": "The Good, the Bad and the Grimm"
  },
  {
    "date": "2019-04-28",
    "kennelTags": [
      "madrid-h3"
    ],
    "runNumber": 2368,
    "hares": "Blanka Wanka, Pussy Galore",
    "location": "San Agustín de Guadalix",
    "startTime": "13:00",
    "latitude": 40.69075,
    "longitude": -3.609972,
    "locationUrl": "https://goo.gl/maps/xUzezPwuK4s).",
    "sourceUrl": "https://madridhhh.com/aqueducts-and-apple-pie-run/",
    "description": "Aqueducts and Apple Pie"
  },
  {
    "date": "2019-05-05",
    "kennelTags": [
      "madrid-h3"
    ],
    "runNumber": 2369,
    "hares": "Twice a Day and The Unsinkable",
    "location": "Valdelatas, Universidad Autonoma area.",
    "startTime": "13:00",
    "latitude": 40.533616,
    "longitude": -3.69272,
    "locationUrl": "https://goo.gl/maps/u1QdGJiAwK92",
    "sourceUrl": "https://madridhhh.com/mothers-day-run/",
    "description": "Mother’s Day"
  },
  {
    "date": "2019-05-12",
    "kennelTags": [
      "madrid-h3"
    ],
    "runNumber": 2370,
    "hares": "Cunta Claus, Not Half Bad",
    "location": "near Lago, Casa de Campo",
    "startTime": "13:00",
    "latitude": 40.417948,
    "longitude": -3.72985,
    "locationUrl": "https://goo.gl/maps/2pxkDpirT9E2",
    "sourceUrl": "https://madridhhh.com/bristol-is-cumming-run/",
    "description": "Bristol Is Cumming"
  },
  {
    "date": "2019-05-17",
    "kennelTags": [
      "madrid-h3"
    ],
    "runNumber": 2371,
    "hares": "Scrambled Dag",
    "location": "Coslada, Barrio del Puerto Metro Station",
    "startTime": "21:00",
    "latitude": 40.422478,
    "longitude": -3.56914,
    "locationUrl": "https://goo.gl/maps/ahtfsoJPypQ2",
    "sourceUrl": "https://madridhhh.com/growing-young-swedish-run/",
    "description": "Growing Young Swedish"
  },
  {
    "date": "2019-05-19",
    "kennelTags": [
      "madrid-h3"
    ],
    "runNumber": 2372,
    "hares": "Los Cuñaos…, Sir Sir Culchie",
    "location": "La Berzosa",
    "startTime": "13:00",
    "latitude": 40.614728,
    "longitude": -3.928583,
    "locationUrl": "https://goo.gl/maps/hzwz6T6P3Lm",
    "sourceUrl": "https://madridhhh.com/spanish-culchie-clan-run/",
    "description": "Spanish Culchie Clan"
  },
  {
    "date": "2019-05-26",
    "kennelTags": [
      "madrid-h3"
    ],
    "runNumber": 2373,
    "hares": "Bottoms Up, Smile Like You Like It",
    "location": "Tres Cantos",
    "startTime": "13:00",
    "latitude": 40.596014,
    "longitude": -3.719684,
    "locationUrl": "https://goo.gl/maps/6tZfufRhbDpTYyri6",
    "sourceUrl": "https://madridhhh.com/double-dutch-run/",
    "description": "Double Dutch"
  },
  {
    "date": "2019-06-02",
    "kennelTags": [
      "madrid-h3"
    ],
    "runNumber": 2374,
    "hares": "Donkey Punch, Tim Rat With A Sweet Snatch",
    "location": "Ermita de San Blas (Miraflores de la Sierra)",
    "startTime": "13:00",
    "latitude": 40.788375,
    "longitude": -3.796426,
    "locationUrl": "https://goo.gl/maps/4RiMpCs4BxXyRsGy9",
    "sourceUrl": "https://madridhhh.com/the-35th-analversary-rn/",
    "description": "35th Analversary"
  },
  {
    "date": "2019-06-09",
    "kennelTags": [
      "madrid-h3"
    ],
    "runNumber": 2375,
    "hares": "Sir Sir Culchie and Singapore Colin",
    "location": "Hoyo de Manzanares, Academia Militar",
    "startTime": "13:00",
    "latitude": 40.62476,
    "longitude": -3.8772,
    "locationUrl": "https://goo.gl/maps/btpXi8WQEKk",
    "sourceUrl": "https://madridhhh.com/singaporean-culchie-run/",
    "description": "Singaporean Culchie"
  },
  {
    "date": "2019-06-16",
    "kennelTags": [
      "madrid-h3"
    ],
    "runNumber": 2376,
    "hares": "Big Foot, Icky Sticky Sauna",
    "location": "Majadahonda",
    "startTime": "13:00",
    "latitude": 40.471944,
    "longitude": -3.848667,
    "locationUrl": "https://goo.gl/maps/wGC5sQy8mFfQCeVu9",
    "sourceUrl": "https://madridhhh.com/sauna-hair-run/",
    "description": "Sauna Hair"
  },
  {
    "date": "2019-06-21",
    "kennelTags": [
      "madrid-h3"
    ],
    "runNumber": 2377,
    "hares": "El Sordo, The Vagitarian",
    "location": "Chamartín (Colombia metro station)",
    "startTime": "21:00",
    "latitude": 40.456584,
    "longitude": -3.679368,
    "locationUrl": "https://goo.gl/maps/Q8kLHMb6ufwZyzHB9",
    "sourceUrl": "https://madridhhh.com/abuelo-again-run/",
    "description": "Abuelo Again"
  },
  {
    "date": "2019-06-23",
    "kennelTags": [
      "madrid-h3"
    ],
    "runNumber": 2378,
    "hares": "Big Foot, Cunt Dracula",
    "location": "Cunt Dracula’s Palace, La Moraleja",
    "startTime": "13:00",
    "latitude": 40.518177,
    "longitude": -3.60797,
    "locationUrl": "https://goo.gl/maps/ziyrVp4bwvsaZgEC7",
    "sourceUrl": "https://madridhhh.com/big-cnt-run/",
    "description": "Big C*nt"
  },
  {
    "date": "2019-06-30",
    "kennelTags": [
      "madrid-h3"
    ],
    "runNumber": 2380,
    "hares": "Very Grimm",
    "location": "Very Grimm’s Palace, Metro Valdezarza. Calle Valle de Cardos, 34",
    "startTime": "12:00",
    "latitude": 40.466986,
    "longitude": -3.712701,
    "locationUrl": "https://goo.gl/maps/nVfHZTzMzTT2",
    "sourceUrl": "https://madridhhh.com/pyrenees-refugee-run/",
    "description": "Pyrenees Refugee"
  },
  {
    "date": "2019-07-07",
    "kennelTags": [
      "madrid-h3"
    ],
    "runNumber": 2381,
    "hares": "Icky Sticky Sauna, Smile Like You Like It",
    "location": "Park near El Pozo Cercanias Station.",
    "startTime": "13:00",
    "latitude": 40.377766,
    "longitude": -3.651825,
    "locationUrl": "https://goo.gl/maps/6YSbSpTroFr1kYc67",
    "sourceUrl": "https://madridhhh.com/22-double-a-cup-run/",
    "description": "22 Double A Cup"
  },
  {
    "date": "2019-07-14",
    "kennelTags": [
      "madrid-h3"
    ],
    "runNumber": 2382,
    "hares": "Tim Rat With A Sweet Snatch",
    "location": "Calle Cerrillo 14, Becerril de la Sierra.",
    "startTime": "13:00",
    "latitude": 40.704382,
    "longitude": -3.991434,
    "locationUrl": "https://goo.gl/maps/4GeK5C56C2t)",
    "sourceUrl": "https://madridhhh.com/2019-pool-party-run/",
    "description": "2019 Pool Party"
  },
  {
    "date": "2019-07-21",
    "kennelTags": [
      "madrid-h3"
    ],
    "runNumber": 2383,
    "hares": "Bush Warmer, Scrambled Dag",
    "location": "Calle Sándalo 5, flat 4A. (Near Parque Conde Orgaz)",
    "startTime": "12:00",
    "latitude": 40.452358,
    "longitude": -3.615949,
    "locationUrl": "https://goo.gl/maps/XSJFqWQPzpkwdt9d8",
    "sourceUrl": "https://madridhhh.com/in-and-out-of-the-pinus-run/",
    "description": "In And Out Of The Pinus"
  },
  {
    "date": "2019-07-27",
    "kennelTags": [
      "madrid-h3"
    ],
    "runNumber": 2384,
    "hares": "Bean Bag Bonk, Gobble 07",
    "location": "La Berzosilla (Torrelodones)",
    "startTime": "13:00",
    "latitude": 40.584313,
    "longitude": -3.950749,
    "locationUrl": "https://goo.gl/maps/WQxMRnxbhXcunpEH7).",
    "sourceUrl": "https://madridhhh.com/las-meigas-bean-dip/",
    "description": "Las Meigas Bean Dip"
  },
  {
    "date": "2019-08-02",
    "kennelTags": [
      "madrid-h3"
    ],
    "runNumber": 2385,
    "hares": "Smile Like You Like It",
    "location": "Moncloa on Paseo Moret (across from Paseo Moret 5 and 7)",
    "startTime": "19:30",
    "latitude": 40.43309,
    "longitude": -3.724015,
    "locationUrl": "https://goo.gl/maps/ZE7nKfVzGBypmeLv6",
    "sourceUrl": "https://madridhhh.com/live-hare-in-the-bushes-run/",
    "description": "Live Hare in the Bushes"
  },
  {
    "date": "2019-08-04",
    "kennelTags": [
      "madrid-h3"
    ],
    "runNumber": 2386,
    "hares": "All You Can Eat, Bottoms Up, El Sordo",
    "location": "El Escorial side of the bridge over Embalse de Valmayor (the Valmayor Reservoir)",
    "startTime": "13:00",
    "latitude": 40.576788,
    "longitude": -4.051706,
    "locationUrl": "https://goo.gl/maps/yE93a4xaXuzeLAXn6",
    "sourceUrl": "https://madridhhh.com/el-sorbo-and-the-sorbetts/",
    "description": "El Sorbo and the Sorbetts"
  },
  {
    "date": "2019-08-11",
    "kennelTags": [
      "madrid-h3"
    ],
    "runNumber": 2387,
    "hares": "Lesbie Friends, Snog the Goblin",
    "location": "Snog the Goblin´s Grotto, Calle Acueducto, 3 – DPDO (BLUE DOOR), 3rd Floor, 28039 Madrid",
    "startTime": "13:00",
    "locationUrl": "https://goo.gl/maps/dp9kRbHwzx7C1CyZA",
    "sourceUrl": "https://madridhhh.com/lesbies-last-snog-run/",
    "description": "Lesbie´s Last Snog"
  },
  {
    "date": "2019-08-18",
    "kennelTags": [
      "madrid-h3"
    ],
    "runNumber": 2388,
    "hares": "Blanka Wanka",
    "location": "The car park of Madrid Zoo in Casa de Campo",
    "startTime": "13:00",
    "latitude": 40.407821,
    "longitude": -3.75962,
    "locationUrl": "https://goo.gl/maps/VK7J9rQjfmYDAu4h7",
    "sourceUrl": "https://madridhhh.com/if-you-go-down-to-the-zoo-today-run/"
  },
  {
    "date": "2019-08-25",
    "kennelTags": [
      "madrid-h3"
    ],
    "runNumber": 2389,
    "hares": "Speedy Gonzalez",
    "location": "Polideportivo Municipal Dehesa Boyal, Av. Navarrondan, s/n, 28702 San Sebastián de los Reyes, Madrid  Madrid",
    "startTime": "13:00",
    "locationUrl": "https://goo.gl/maps/yrmpk6vLmXeM2QaP9",
    "sourceUrl": "https://madridhhh.com/the-sports-centre-fancy-rn/"
  },
  {
    "date": "2019-09-01",
    "kennelTags": [
      "madrid-h3"
    ],
    "runNumber": 2390,
    "hares": "Fisherman´s Friend and Smile Like You Like It",
    "location": "Avenida de Peñalara (near La Granja metro), Alcobendas",
    "startTime": "13:00",
    "latitude": 40.528167,
    "longitude": -3.662472,
    "locationUrl": "https://goo.gl/maps/Ch9Jaw3vn65P2A5P8",
    "sourceUrl": "https://madridhhh.com/the-somethings-smelling-fishy-rn/"
  },
  {
    "date": "2019-09-06",
    "kennelTags": [
      "madrid-h3"
    ],
    "runNumber": 2391,
    "hares": "El Sordo, Smile Like You Like It",
    "location": "El Sordo’s Office, Calle Vallehermoso 82, bajo izqda, Madrid",
    "startTime": "20:00",
    "latitude": 40.438113,
    "longitude": -3.708245,
    "locationUrl": "https://goo.gl/maps/cZy8E6mvswM2",
    "sourceUrl": "https://madridhhh.com/follow-the-hare-down-his-hole-run/",
    "description": "Follow The Hare Down His ***hole"
  },
  {
    "date": "2019-09-08",
    "kennelTags": [
      "madrid-h3"
    ],
    "runNumber": 2392,
    "hares": "Gobble 07, Not Half Bad",
    "location": "near the main plaza in Hoyo de Manzanares",
    "startTime": "13:00",
    "latitude": 40.622497,
    "longitude": -3.907186,
    "locationUrl": "https://goo.gl/maps/BoxwYdFDEqKXrV2B9",
    "sourceUrl": "https://madridhhh.com/gobble-my-eggs-run/",
    "description": "Gobble My Eggs"
  },
  {
    "date": "2019-09-15",
    "kennelTags": [
      "madrid-h3"
    ],
    "runNumber": 2393,
    "hares": "Big Foot, Icky Sticky Sauna",
    "location": "Colonia Mingorrubio, El Pardo",
    "startTime": "13:00",
    "latitude": 40.5345504,
    "longitude": -3.783641,
    "sourceUrl": "https://madridhhh.com/shooting-range-run/",
    "description": "Shooting Range"
  },
  {
    "date": "2019-09-22",
    "kennelTags": [
      "madrid-h3"
    ],
    "runNumber": 2394,
    "hares": "Bush Warmer, Scrambled Dag",
    "location": "El Molar, side of local cemetery (Ermita de la Soledad)",
    "startTime": "13:00",
    "latitude": 40.730889,
    "longitude": -3.591056,
    "locationUrl": "https://goo.gl/maps/53c9Loen7tYSbS8e8.",
    "sourceUrl": "https://madridhhh.com/look-out-for-the-lookout-run/",
    "description": "Look Out For The Lookout"
  },
  {
    "date": "2019-09-29",
    "kennelTags": [
      "madrid-h3"
    ],
    "runNumber": 2395,
    "hares": "Bottoms Up, Something In My Mouth",
    "location": "Bustarviejo (by Fuente del Collado restaurant)",
    "startTime": "13:00",
    "latitude": 40.855148,
    "longitude": -3.730354,
    "locationUrl": "https://goo.gl/maps/jt9CfFZu7knxqRvT6.",
    "sourceUrl": "https://madridhhh.com/antipodean-run/",
    "description": "Antipodean"
  },
  {
    "date": "2019-10-04",
    "kennelTags": [
      "madrid-h3"
    ],
    "runNumber": 2396,
    "hares": "Bush Warmer, Cunt Dracula.",
    "location": "In front of Museo de Ciencias Naturales, calle Jose Gutierrez Abascal 2",
    "startTime": "20:00",
    "latitude": 40.440379,
    "longitude": -3.690622,
    "locationUrl": "https://goo.gl/maps/wYX7vfwEnpZMHv8ZA",
    "sourceUrl": "https://madridhhh.com/hidden-madrid-run/",
    "description": "Hidden Madrid"
  },
  {
    "date": "2019-10-06",
    "kennelTags": [
      "madrid-h3"
    ],
    "runNumber": 2397,
    "hares": "Not Half Bad, The Vagitarian",
    "location": "Valdebas Oeste, Parque Felipe VI",
    "startTime": "13:00",
    "latitude": 40.488694,
    "longitude": -3.642536,
    "locationUrl": "https://goo.gl/maps/9f73pDHMSeUdCDta7",
    "sourceUrl": "https://madridhhh.com/anal-general-meeting-run-2019/",
    "description": "Anal General Meeting"
  },
  {
    "date": "2019-10-13",
    "kennelTags": [
      "madrid-h3"
    ],
    "runNumber": 2398,
    "hares": "Bongo Drums, Pussy Galore",
    "location": "Casa de Campo Teleférico Car Park",
    "startTime": "13:00",
    "latitude": 40.42014,
    "longitude": -3.750001,
    "locationUrl": "https://goo.gl/maps/4R33fWY9x53VRuU48)",
    "sourceUrl": "https://madridhhh.com/back-end-of-casa-de-campo-run/",
    "description": "Back End Of Casa de Campo"
  },
  {
    "date": "2019-10-20",
    "kennelTags": [
      "madrid-h3"
    ],
    "runNumber": 2399,
    "hares": "Smile Like You Like It, Snog The Goblin",
    "location": "Calle del Arroyo del Calderillo (Los Berrocales del Jarama)",
    "startTime": "13:00",
    "latitude": 40.477889,
    "longitude": -3.516389,
    "locationUrl": "https://goo.gl/maps/CQeHZovEUh8hFSQv6):",
    "sourceUrl": "https://madridhhh.com/2400-1-run/",
    "description": "2400-1"
  },
  {
    "date": "2019-10-27",
    "kennelTags": [
      "madrid-h3"
    ],
    "runNumber": 2400,
    "hares": "Ben NN, Bush Warmer",
    "location": "Montecarmelo",
    "startTime": "13:00",
    "latitude": 40.506835,
    "longitude": -3.70668,
    "locationUrl": "https://goo.gl/maps/cajWoYhU4Q3aBNQR7",
    "sourceUrl": "https://madridhhh.com/kum-und-essen-mein-bratwurst-run/",
    "description": "K*m und essen mein Bratwurst"
  },
  {
    "date": "2019-10-31",
    "kennelTags": [
      "madrid-h3"
    ],
    "runNumber": 2401,
    "hares": "Knob Job, Scrambled Dag",
    "location": "Barajas Metro",
    "startTime": "21:00",
    "latitude": 40.474352,
    "longitude": -3.584677,
    "locationUrl": "https://goo.gl/maps/o1dF9mmXVrD1VXvq5",
    "sourceUrl": "https://madridhhh.com/halloween-no-brexit-run/",
    "description": "Halloween No Brexit"
  },
  {
    "date": "2019-11-03",
    "kennelTags": [
      "madrid-h3"
    ],
    "runNumber": 2402,
    "hares": "Very Grimm, Virtual Cunt",
    "location": "Near Laguna metro in southern Madrid (near corner of Calle de Alhambra and Avenida de Ángel San Briz)",
    "startTime": "13:00",
    "latitude": 40.399118,
    "longitude": -3.744197,
    "locationUrl": "https://goo.gl/maps/6BJ6z2Tdts22",
    "sourceUrl": "https://madridhhh.com/very-grimm-virgin-hare-run/",
    "description": "Very Grimm Virgin Hare"
  },
  {
    "date": "2019-11-10",
    "kennelTags": [
      "madrid-h3"
    ],
    "runNumber": 2403,
    "hares": "Bottoms Up and Ben NN",
    "location": "Valdelatas, Universidad Autonoma area.",
    "startTime": "13:00",
    "latitude": 40.533616,
    "longitude": -3.69272,
    "locationUrl": "https://goo.gl/maps/u1QdGJiAwK92",
    "sourceUrl": "https://madridhhh.com/springboks-fan-run/",
    "description": "Springboks’ Fan"
  },
  {
    "date": "2019-11-17",
    "kennelTags": [
      "madrid-h3"
    ],
    "runNumber": 2404,
    "hares": "El Sordo, Speedy Gonzalez",
    "location": "Aranjuez",
    "startTime": "13:00",
    "latitude": 40.043745,
    "longitude": -3.602337,
    "locationUrl": "https://goo.gl/maps/LKyTyvXY6HfG22Lg6",
    "sourceUrl": "https://madridhhh.com/hash-on-wheels-run-2019/",
    "description": "Hash On Wheels"
  },
  {
    "date": "2019-11-24",
    "kennelTags": [
      "madrid-h3"
    ],
    "runNumber": 2405,
    "hares": "Icky Sticky Sauna, Virtual Cunt",
    "location": "Colonia Mingorrubio, El Pardo",
    "startTime": "13:00",
    "latitude": 40.5345504,
    "longitude": -3.783641,
    "locationUrl": "https://goo.gl/maps/uYKpAqNt9tzyKk8F)",
    "sourceUrl": "https://madridhhh.com/memorial-run-2019/",
    "description": "Memorial"
  },
  {
    "date": "2019-12-01",
    "kennelTags": [
      "madrid-h3"
    ],
    "runNumber": 2406,
    "hares": "Fisherman’s Friend, Smile Like You Like It",
    "location": "near Parque de Santa Maria metro",
    "startTime": "13:00",
    "latitude": 40.47775,
    "longitude": -3.641814,
    "locationUrl": "https://goo.gl/maps/WiJPi25e26SCP82t6",
    "sourceUrl": "https://madridhhh.com/run-down-but-erect-run-erections-2019/",
    "description": "R*n Down But Erect"
  },
  {
    "date": "2019-12-06",
    "kennelTags": [
      "madrid-h3"
    ],
    "runNumber": 2407,
    "hares": "Bush Warmer, Knob Job",
    "location": "Calle Covarrubias, 22. Knob Job’s office. Closest Metro Alonso Martínez",
    "startTime": "19:00",
    "latitude": 40.430065,
    "longitude": -3.697612,
    "locationUrl": "https://goo.gl/maps/Lc7G1hWGXo52",
    "sourceUrl": "https://madridhhh.com/beery-lights-of-christmas-run/",
    "description": "Beery Lights Of Christmas"
  },
  {
    "date": "2019-12-08",
    "kennelTags": [
      "madrid-h3"
    ],
    "runNumber": 2408,
    "hares": "Alien Sex, Scrambled Dag",
    "location": "Alameda de Osuna",
    "startTime": "13:00",
    "latitude": 40.459097,
    "longitude": -3.593472,
    "locationUrl": "https://goo.gl/maps/bgZC3uz7Ns62",
    "sourceUrl": "https://madridhhh.com/santa-lucia-run-2019/",
    "description": "Santa Lucia"
  },
  {
    "date": "2019-12-15",
    "kennelTags": [
      "madrid-h3"
    ],
    "runNumber": 2409,
    "hares": "Blow Re Mi., Gag Reflex",
    "location": "First Car Park in el Pardo",
    "startTime": "13:00",
    "latitude": 40.496864,
    "longitude": -3.758909,
    "locationUrl": "https://goo.gl/maps/KVLzhye5D2U2",
    "sourceUrl": "https://madridhhh.com/too-long-didnt-read-run/",
    "description": "Holly Jolly, Blow Me, Gag Me! It’s Finally Tinsel Time"
  },
  {
    "date": "2019-12-22",
    "kennelTags": [
      "madrid-h3"
    ],
    "runNumber": 2410,
    "hares": "Bongo Drums, The Vagitarian",
    "location": "Plaza del Conde del Valle Suchil. Calle Rodrigez de San Pedro, 9",
    "startTime": "13:00",
    "latitude": 40.431386,
    "longitude": -3.707113,
    "locationUrl": "https://goo.gl/maps/zHofTPbZ7oy",
    "sourceUrl": "https://madridhhh.com/walking-in-a-liz-e-wonderland/",
    "description": "Walking In A Liz-e Wonderland"
  },
  {
    "date": "2019-12-29",
    "kennelTags": [
      "madrid-h3"
    ],
    "runNumber": 2411,
    "hares": "Throat Comfort, Very Grimm",
    "location": "Very Grimm’s Palace, Metro Valdezarza. Calle Valle de Cardos, 34",
    "startTime": "13:00",
    "latitude": 40.466986,
    "longitude": -3.712701,
    "locationUrl": "https://goo.gl/maps/nVfHZTzMzTT2",
    "sourceUrl": "https://madridhhh.com/last-run-of-2019/",
    "description": "Last R*n"
  },
  {
    "date": "2020-01-01",
    "kennelTags": [
      "madrid-h3"
    ],
    "runNumber": 2412,
    "hares": "Alien Sex, Scrambled Dag",
    "location": "Alameda de Osuna",
    "startTime": "14:00",
    "latitude": 40.459097,
    "longitude": -3.593472,
    "locationUrl": "https://goo.gl/maps/bgZC3uz7Ns62",
    "sourceUrl": "https://madridhhh.com/mobiles-downstairs-run/",
    "description": "Mobiles Downstairs"
  },
  {
    "date": "2020-01-03",
    "kennelTags": [
      "madrid-h3"
    ],
    "runNumber": 2413,
    "hares": "Smile Like You Like It, Snog The Goblin",
    "location": "Snog the Goblin’s Grotto, Calle Acueducto, 3- DPDO (BLUE",
    "startTime": "20:00",
    "latitude": 40.45088,
    "longitude": -3.708695,
    "locationUrl": "https://goo.gl/maps/qZud3B28AZCc5Lp6A",
    "sourceUrl": "https://madridhhh.com/the-8pm-live-hare-run/",
    "description": "8pm (At Night) Live-Hare"
  },
  {
    "date": "2020-01-05",
    "kennelTags": [
      "madrid-h3"
    ],
    "runNumber": 2414,
    "hares": "Big Foot, Smile Like You Like It",
    "location": "near Plaza Eliptica metro station",
    "startTime": "13:00",
    "latitude": 40.383298,
    "longitude": -3.712822,
    "locationUrl": "https://goo.gl/maps/ZZGvWKkXAQ1a16Yz5",
    "sourceUrl": "https://madridhhh.com/asian-wise-men-run/",
    "description": "Asian Wise Men"
  },
  {
    "date": "2020-01-12",
    "kennelTags": [
      "madrid-h3"
    ],
    "runNumber": 2415,
    "hares": "Gag Reflex, Icky Sticky Sauna",
    "location": "near Torrelaguna",
    "startTime": "13:00",
    "latitude": 40.837429,
    "longitude": -3.540774,
    "locationUrl": "https://goo.gl/maps/FmB1FxUqeawYygjXA).",
    "sourceUrl": "https://madridhhh.com/ickys-gagging-over-the-lagoon-run/",
    "description": "Icky’s Gagging Over The Lagoon"
  },
  {
    "date": "2020-01-19",
    "kennelTags": [
      "madrid-h3"
    ],
    "runNumber": 2416,
    "hares": "Gobble 07, Sir Sir Culchie",
    "location": "La Berzosa",
    "startTime": "13:00",
    "latitude": 40.614912,
    "longitude": -3.928358,
    "locationUrl": "https://goo.gl/maps/N3n3SeQKihWmXNpm6",
    "sourceUrl": "https://madridhhh.com/culchies-backyard-run/",
    "description": "Culchie’s Backyard"
  },
  {
    "date": "2020-01-26",
    "kennelTags": [
      "madrid-h3"
    ],
    "runNumber": 2417,
    "hares": "Speedy Gonzalez, Twice A Day",
    "location": "La Jarosa reservoir, near Guadarrama.",
    "startTime": "13:00",
    "latitude": 40.66642,
    "longitude": -4.132109,
    "locationUrl": "https://goo.gl/maps/N1TBSxSWSWD2).",
    "sourceUrl": "https://madridhhh.com/path-of-the-fallen-pine-run/",
    "description": "Path Of The Fallen Pine"
  },
  {
    "date": "2020-02-02",
    "kennelTags": [
      "madrid-h3"
    ],
    "runNumber": 2418,
    "hares": "Ben NN, Bush Warmer",
    "location": "Alcalá de Henares",
    "startTime": "13:00",
    "latitude": 40.476448,
    "longitude": -3.362646,
    "locationUrl": "https://goo.gl/maps/2dqbwx6xJoX9mTRs9)",
    "sourceUrl": "https://madridhhh.com/monumental-piss-up-run/",
    "description": "Monumental Piss Up"
  },
  {
    "date": "2020-02-07",
    "kennelTags": [
      "madrid-h3"
    ],
    "runNumber": 2419,
    "hares": "Icky Sticky Sauna, Smile Like You Like It",
    "location": "Near Alvarado Metro Station",
    "startTime": "20:00",
    "latitude": 40.451016,
    "longitude": -3.70082,
    "locationUrl": "https://goo.gl/maps/zBjohFc5EZw6wWmZ9",
    "sourceUrl": "https://madridhhh.com/sticky-tomje-friday-extravaganza-run/",
    "description": "Sticky Tomje Friday Extravaganza"
  },
  {
    "date": "2020-02-09",
    "kennelTags": [
      "madrid-h3"
    ],
    "runNumber": 2420,
    "hares": "Bottoms Up, Something In My Mouth",
    "location": "Tres Cantos",
    "startTime": "13:00",
    "latitude": 40.596014,
    "longitude": -3.719684,
    "locationUrl": "https://goo.gl/maps/6tZfufRhbDpTYyri6",
    "sourceUrl": "https://madridhhh.com/something-in-my-bottoms-run/",
    "description": "Something In My Bottoms"
  },
  {
    "date": "2020-02-16",
    "kennelTags": [
      "madrid-h3"
    ],
    "runNumber": 2421,
    "hares": "Very Grimm",
    "location": "Casa de Campo",
    "startTime": "13:00",
    "latitude": 40.411167,
    "longitude": -3.7565,
    "locationUrl": "https://goo.gl/maps/5pk8StKRfTR2",
    "sourceUrl": "https://madridhhh.com/valentines-day-hangover-run/",
    "description": "Valentine’s Day Hangover"
  },
  {
    "date": "2020-02-23",
    "kennelTags": [
      "madrid-h3"
    ],
    "runNumber": 2422,
    "hares": "Alien Sex, Smile Like You Like It",
    "location": "Paracuellos de Jarama",
    "startTime": "13:00",
    "latitude": 40.507868,
    "longitude": -3.528609,
    "locationUrl": "https://goo.gl/maps/hkDeevDT21PC3e6j7).",
    "sourceUrl": "https://madridhhh.com/not-so-filthy-run/",
    "description": "Not So Filthy"
  },
  {
    "date": "2020-03-01",
    "kennelTags": [
      "madrid-h3"
    ],
    "runNumber": 2424,
    "hares": "Gobble 07",
    "location": "Las Rozas, next to Retamar Bridge",
    "latitude": 40.520519,
    "longitude": -3.938951,
    "locationUrl": "https://goo.gl/maps/AvsiTc7QCfP2)",
    "sourceUrl": "https://madridhhh.com/leap-refugee-run/",
    "description": "Leap Refugee"
  },
  {
    "date": "2020-03-06",
    "kennelTags": [
      "madrid-h3"
    ],
    "runNumber": 2425,
    "hares": "El Sordo, Knob Job",
    "location": "El Sultán Restaurant, Calle Gaztambide 20",
    "startTime": "20:00",
    "latitude": 40.433183,
    "longitude": -3.715573,
    "locationUrl": "https://goo.gl/maps/G4Lk7nUB78TPGU3z5",
    "sourceUrl": "https://madridhhh.com/double-the-fun-runs/",
    "description": "Double The Fun"
  },
  {
    "date": "2020-03-29",
    "kennelTags": [
      "madrid-h3"
    ],
    "runNumber": 1,
    "hares": "Smile Like You Like It., Snog The Goblin",
    "location": "Somewhere in Madrid thanks to google Maps!!",
    "startTime": "13:00",
    "sourceUrl": "https://madridhhh.com/cor-on-a-cor-on-a-virtually-unofficial-run/"
  },
  {
    "date": "2020-04-05",
    "kennelTags": [
      "madrid-h3"
    ],
    "runNumber": 2,
    "hares": "All You Can Eat., Blow Re Mi",
    "location": "Somewhere in Madrid thanks to google Maps!!",
    "startTime": "13:00",
    "sourceUrl": "https://madridhhh.com/the-symbol-cyber-sunday-run/",
    "description": "Symbol Cyber Sunday"
  },
  {
    "date": "2020-04-12",
    "kennelTags": [
      "madrid-h3"
    ],
    "runNumber": 3,
    "hares": "Blanka Wanka., The Vagitarian",
    "location": "Somewhere in Madrid thanks to google Maps!!",
    "startTime": "13:00",
    "sourceUrl": "https://madridhhh.com/hash-trash-treasure-cunts-run/",
    "description": "Hash Trash Treasure C*nts"
  },
  {
    "date": "2020-04-19",
    "kennelTags": [
      "madrid-h3"
    ],
    "runNumber": 4,
    "hares": "Smile Like You Like It., Snog The Goblin",
    "location": "Somewhere in Madrid thanks to google Maps!!",
    "startTime": "13:00",
    "sourceUrl": "https://madridhhh.com/you-didnt-see-this-cummin-run/",
    "description": "You Didn’t See This C*mmin"
  },
  {
    "date": "2020-04-25",
    "kennelTags": [
      "madrid-h3"
    ],
    "runNumber": 5,
    "hares": "Virtual Cunt and Bongo Drums",
    "location": "Somewhere in Madrid thanks to google Maps!!",
    "startTime": "13:00",
    "sourceUrl": "https://madridhhh.com/virtual-great-trek-run/",
    "description": "Virtual Great Trek"
  },
  {
    "date": "2020-05-03",
    "kennelTags": [
      "madrid-h3"
    ],
    "runNumber": 6,
    "hares": "Bush Warmer, Not Half Bad",
    "startTime": "13:00",
    "sourceUrl": "https://madridhhh.com/virtual-global-pub-treasure-hunt-hash-run/",
    "description": "Virtual Global Pub Treasure Hunt Hash"
  },
  {
    "date": "2020-05-10",
    "kennelTags": [
      "madrid-h3"
    ],
    "runNumber": 7,
    "hares": "Gag Reflex, The Vagitarian",
    "startTime": "13:00",
    "sourceUrl": "https://madridhhh.com/gag-your-vag-virtual-run/",
    "description": "Gag your Vag"
  },
  {
    "date": "2020-05-17",
    "kennelTags": [
      "madrid-h3"
    ],
    "runNumber": 8,
    "hares": "Blanka Wanka, Pussy Galore",
    "startTime": "13:00",
    "sourceUrl": "https://madridhhh.com/virtual-argentina-tour-run/",
    "description": "Virtual Argentina Tour"
  },
  {
    "date": "2020-05-24",
    "kennelTags": [
      "madrid-h3"
    ],
    "runNumber": 9,
    "hares": "Divine Dicktation, Gag Reflex",
    "startTime": "13:00",
    "sourceUrl": "https://madridhhh.com/virtual-quickie-run/",
    "description": "Virtual Quickie"
  },
  {
    "date": "2020-06-07",
    "kennelTags": [
      "madrid-h3"
    ],
    "runNumber": 11,
    "hares": "Smile Like You Like It",
    "startTime": "13:00",
    "sourceUrl": "https://madridhhh.com/fishy-factoids-virtual-run/",
    "description": "Fishy Factoids"
  },
  {
    "date": "2020-07-05",
    "kennelTags": [
      "madrid-h3"
    ],
    "runNumber": 2426,
    "hares": "Smile Like You Like It, Snog The Goblin",
    "location": "Calle del Arroyo del Calderillo (Los Berrocales del Jarama)",
    "startTime": "13:00",
    "latitude": 40.477889,
    "longitude": -3.516389,
    "locationUrl": "https://goo.gl/maps/CQeHZovEUh8hFSQv6):",
    "sourceUrl": "https://madridhhh.com/post-lock-down-down-down-run/"
  },
  {
    "date": "2020-07-12",
    "kennelTags": [
      "madrid-h3"
    ],
    "runNumber": 2427,
    "hares": "Blow Re Mi",
    "location": "near Calle Ronda Flores 1, Aravaca",
    "startTime": "13:00",
    "latitude": 40.44862,
    "longitude": -3.766446,
    "locationUrl": "https://goo.gl/maps/BsoMiJagPoqXbowa6",
    "sourceUrl": "https://madridhhh.com/blow-re-mask-run/",
    "description": "Blow Re Mask"
  },
  {
    "date": "2020-07-19",
    "kennelTags": [
      "madrid-h3"
    ],
    "runNumber": 2428,
    "hares": "Amada NN., Icky Sticky Sauna",
    "location": "Colonia Mingorrubio, El Pardo",
    "startTime": "13:00",
    "latitude": 40.5345504,
    "longitude": -3.783641,
    "locationUrl": "https://goo.gl/maps/uYKpAqNt9tzyKk8F)",
    "sourceUrl": "https://madridhhh.com/virgin-is-gettin-sticky-with-it-run/",
    "description": "Virgin Is Gettin’ Sticky With It"
  },
  {
    "date": "2020-07-26",
    "kennelTags": [
      "madrid-h3"
    ],
    "runNumber": 2430,
    "hares": "Bongo Drums, Smile Like You Like It",
    "location": "Casa de Campo Teleférico Car Park",
    "startTime": "13:00",
    "latitude": 40.42014,
    "longitude": -3.750001,
    "locationUrl": "https://goo.gl/maps/4R33fWY9x53VRuU48)",
    "sourceUrl": "https://madridhhh.com/drums-that-make-you-smile-run/",
    "description": "Drums That Make You Smile"
  },
  {
    "date": "2021-05-23",
    "kennelTags": [
      "madrid-h3"
    ],
    "runNumber": 2431,
    "hares": "Knob Job, Scrambled Dag",
    "location": "San Agustín de Guadalix",
    "startTime": "13:00",
    "latitude": 40.69075,
    "longitude": -3.609972,
    "locationUrl": "https://goo.gl/maps/xUzezPwuK4s).",
    "sourceUrl": "https://madridhhh.com/the-get-your-kicks-in-guadalix-run/",
    "description": "Get your kicks in Guadalix"
  },
  {
    "date": "2021-05-30",
    "kennelTags": [
      "madrid-h3"
    ],
    "runNumber": 2432,
    "hares": "Not Half Bad, Sex Mex",
    "location": "Valdelatas, Universidad Autonoma area.",
    "startTime": "13:00",
    "latitude": 40.533616,
    "longitude": -3.69272,
    "locationUrl": "https://goo.gl/maps/u1QdGJiAwK92",
    "sourceUrl": "https://madridhhh.com/the-bad-sex-run/",
    "description": "Bad Sex"
  },
  {
    "date": "2021-06-06",
    "kennelTags": [
      "madrid-h3"
    ],
    "runNumber": 2433,
    "hares": "Bottoms Up, Smile Like You Like It",
    "location": "El Molar, side of local cemetery (Ermita de la Soledad)",
    "startTime": "13:00",
    "latitude": 40.730889,
    "longitude": -3.591056,
    "locationUrl": "https://goo.gl/maps/53c9Loen7tYSbS8e8.",
    "sourceUrl": "https://madridhhh.com/double-dutch-mola-run/",
    "description": "Double Dutch Mola"
  },
  {
    "date": "2021-06-13",
    "kennelTags": [
      "madrid-h3"
    ],
    "runNumber": 2434,
    "hares": "Not Half Bad, Sex Mex",
    "location": "Colonia Mingorrubio, El Pardo",
    "startTime": "13:00",
    "latitude": 40.5345504,
    "longitude": -3.783641,
    "locationUrl": "https://maps.app.goo.gl/ZD41QaasDBhW3V7GA)",
    "sourceUrl": "https://madridhhh.com/the-francos-tomb-run/",
    "description": "Franco´s Tomb"
  },
  {
    "date": "2021-06-20",
    "kennelTags": [
      "madrid-h3"
    ],
    "runNumber": 2435,
    "hares": "Back Alley, Smile Like You Like It",
    "location": "The car park of Madrid Zoo in Casa de Campo",
    "startTime": "13:00",
    "latitude": 40.407821,
    "longitude": -3.75962,
    "locationUrl": "https://goo.gl/maps/VK7J9rQjfmYDAu4h7",
    "sourceUrl": "https://madridhhh.com/the-backwards-smile-run/",
    "description": "Backwards Smile"
  },
  {
    "date": "2021-06-27",
    "kennelTags": [
      "madrid-h3"
    ],
    "runNumber": 2436,
    "hares": "Sir Sir Culchie and Scarlett O’Hare",
    "location": "Hoyo de Manzanares, Academia Militar",
    "startTime": "13:00",
    "latitude": 40.624356,
    "longitude": -3.882048,
    "locationUrl": "https://goo.gl/maps/btpXi8WQEKk",
    "sourceUrl": "https://madridhhh.com/the-hoyo-revisited-run/",
    "description": "Hoyo Revisited"
  },
  {
    "date": "2021-07-04",
    "kennelTags": [
      "madrid-h3"
    ],
    "runNumber": 2437,
    "hares": "Something In My Mouth, Twice A Day",
    "location": "First Car Park in el Pardo",
    "startTime": "13:00",
    "latitude": 40.496864,
    "longitude": -3.758909,
    "locationUrl": "https://goo.gl/maps/KVLzhye5D2U2",
    "sourceUrl": "https://madridhhh.com/the-southern-canada-day-run/",
    "description": "Southern Canada Day"
  },
  {
    "date": "2021-07-11",
    "kennelTags": [
      "madrid-h3"
    ],
    "runNumber": 2438,
    "hares": "Corkscrew",
    "location": "Boadilla Del Monte",
    "startTime": "13:00",
    "latitude": 40.402546,
    "longitude": -3.875799,
    "locationUrl": "https://goo.gl/maps/aA6WoCMLz1cuVnFG8).",
    "sourceUrl": "https://madridhhh.com/smile-like-youve-bee-screwed-run/",
    "description": "Smile Like You’ve Been Screwed"
  },
  {
    "date": "2021-07-18",
    "kennelTags": [
      "madrid-h3"
    ],
    "runNumber": 2439,
    "hares": "Not Half Bad., Sex Mex",
    "location": "near Calle Ronda Flores 1, Aravaca",
    "startTime": "13:00",
    "latitude": 40.44862,
    "longitude": -3.766446,
    "locationUrl": "https://goo.gl/maps/9Sd8r3AGHAePcXRN7)",
    "sourceUrl": "https://madridhhh.com/the-run-where-smile-like-you-like-it-is-not-the-hare/",
    "description": "R*n Where Smile Like You Like It Is NOT The Hare"
  },
  {
    "date": "2021-07-25",
    "kennelTags": [
      "madrid-h3"
    ],
    "runNumber": 2440,
    "hares": "Bottoms Up, El Sordo",
    "location": "Calle del Parque, Majadahonda",
    "startTime": "13:00",
    "latitude": 40.470202,
    "longitude": -3.851033,
    "locationUrl": "https://goo.gl/maps/TGHR5DdkbvWQGJx38",
    "sourceUrl": "https://madridhhh.com/marching-to-the-beat-of-our-own-cicadas-run/",
    "description": "Marching To The Beat Of Our Own Cicadas"
  },
  {
    "date": "2021-08-01",
    "kennelTags": [
      "madrid-h3"
    ],
    "runNumber": 2441,
    "hares": "Bongo Drums, Virtual Cunt",
    "location": "Avenida del Monasterio de El Escorial, Madrid",
    "startTime": "13:00",
    "latitude": 40.503861,
    "longitude": -3.713,
    "locationUrl": "https://goo.gl/maps/KMLJW7smDKwX3tjQ6",
    "sourceUrl": "https://madridhhh.com/monty-python-run/",
    "description": "Monty Python"
  },
  {
    "date": "2021-08-08",
    "kennelTags": [
      "madrid-h3"
    ],
    "runNumber": 2442,
    "hares": "Snog The Goblin, The Vagitarian",
    "location": "Avenida Complutense, Ciudad Universitaria (Madrid)",
    "startTime": "13:00",
    "latitude": 40.448804,
    "longitude": -3.729001,
    "locationUrl": "https://goo.gl/maps/kjiPG5EaTHGsae816",
    "sourceUrl": "https://madridhhh.com/crikey-alrightey-run/",
    "description": "Crikey… alrightey!"
  },
  {
    "date": "2021-08-15",
    "kennelTags": [
      "madrid-h3"
    ],
    "runNumber": 2443,
    "hares": "Not Half Bad, Virtual Cunt",
    "location": "Avenida de Peñalara (near La Granja metro), Alcobendas",
    "startTime": "13:00",
    "latitude": 40.528167,
    "longitude": -3.662472,
    "locationUrl": "https://goo.gl/maps/Ch9Jaw3vn65P2A5P8",
    "sourceUrl": "https://madridhhh.com/first-heatwave-run-of-2021/",
    "description": "First Heatwave R*n of 2021"
  },
  {
    "date": "2021-08-22",
    "kennelTags": [
      "madrid-h3"
    ],
    "runNumber": 2444,
    "hares": "Bottoms Up, Sex Mex",
    "location": "Casa de Campo, Colonia de los Angeles entrance.",
    "startTime": "13:00",
    "latitude": 40.412508,
    "longitude": -3.779128,
    "locationUrl": "https://goo.gl/maps/QVmpJDhkkkm",
    "sourceUrl": "https://madridhhh.com/the-beer-on-the-rocks-run/",
    "description": "Beer On The Rocks"
  },
  {
    "date": "2021-08-29",
    "kennelTags": [
      "madrid-h3"
    ],
    "runNumber": 2445,
    "hares": "Smile Like You Like It",
    "location": "Parque Azorin, near Buenos Aires metro stop",
    "startTime": "13:00",
    "latitude": 40.38965,
    "longitude": -3.654261,
    "locationUrl": "https://goo.gl/maps/fS8ipoGPHUv2dP4o7",
    "sourceUrl": "https://madridhhh.com/up-the-mountain-down-the-hood-run/",
    "description": "Up The Mountain, Down The Hood"
  },
  {
    "date": "2021-09-05",
    "kennelTags": [
      "madrid-h3"
    ],
    "runNumber": 2446,
    "hares": "Pera NN, Smile Like You Like It",
    "location": "Patones de abajo",
    "startTime": "13:00",
    "latitude": 40.858535,
    "longitude": -3.487018,
    "locationUrl": "https://goo.gl/maps/MmbwatJUc9J2",
    "sourceUrl": "https://madridhhh.com/horny-laowais-run/",
    "description": "Horny Laowais"
  },
  {
    "date": "2021-09-12",
    "kennelTags": [
      "madrid-h3"
    ],
    "runNumber": 2447,
    "hares": "Gobble 07, Twice A Day",
    "location": "Las Rozas",
    "startTime": "13:00",
    "latitude": 40.533184,
    "longitude": -3.901709,
    "locationUrl": "https://goo.gl/maps/qmX4GUMEF6GvPf436)",
    "sourceUrl": "https://madridhhh.com/the-gobble-it-twice-run/",
    "description": "Gobble It Twice"
  },
  {
    "date": "2021-09-19",
    "kennelTags": [
      "madrid-h3"
    ],
    "runNumber": 2448,
    "hares": "Scrambled Dag, Smile Like You Like It",
    "location": "Near Parque de las Avenidas Metro",
    "startTime": "13:00",
    "latitude": 40.439064,
    "longitude": -3.660971,
    "locationUrl": "https://goo.gl/maps/uy1mnq73NaisNBnVA",
    "sourceUrl": "https://madridhhh.com/going-down-on-a-brazilian-run/",
    "description": "Going Down On A Brazilian"
  },
  {
    "date": "2021-09-26",
    "kennelTags": [
      "madrid-h3"
    ],
    "runNumber": 2449,
    "hares": "Something In My Mouth",
    "location": "Hoyo de Manzanares, Academia Militar",
    "startTime": "13:00",
    "latitude": 40.624356,
    "longitude": -3.882048,
    "locationUrl": "https://goo.gl/maps/btpXi8WQEKk",
    "sourceUrl": "https://madridhhh.com/ass-soldier-i-would-be-run/",
    "description": "Assh-soldier I Would Be"
  },
  {
    "date": "2021-10-03",
    "kennelTags": [
      "madrid-h3"
    ],
    "runNumber": 2450,
    "hares": "Singapore Colin, Sir Sir Culchie",
    "location": "La Berzosa",
    "startTime": "13:00",
    "latitude": 40.614912,
    "longitude": -3.928358,
    "locationUrl": "https://goo.gl/maps/N3n3SeQKihWmXNpm6",
    "sourceUrl": "https://madridhhh.com/hoyo-revisited-again-run/",
    "description": "Hoyo Revisited, Again"
  },
  {
    "date": "2021-10-10",
    "kennelTags": [
      "madrid-h3"
    ],
    "runNumber": 2451,
    "hares": "Corkscrew, Very Grimm",
    "location": "Boadilla del Monte",
    "startTime": "13:00",
    "latitude": 40.403036,
    "longitude": -3.875081,
    "locationUrl": "https://goo.gl/maps/nHQ3vpgCLoAhgQoB8).",
    "sourceUrl": "https://madridhhh.com/coughlan-camino-run/",
    "description": "Coughlan Camino"
  },
  {
    "date": "2021-10-17",
    "kennelTags": [
      "madrid-h3"
    ],
    "runNumber": 2452,
    "hares": "Bush Warmer, Scrambled Dag",
    "location": "Calle de Cordel de Pavones 66",
    "startTime": "13:00",
    "latitude": 40.394324,
    "longitude": -3.621098,
    "locationUrl": "https://goo.gl/maps/GpBMm6uHP1xuZzw9A",
    "sourceUrl": "https://madridhhh.com/scrambled-wrecks-run/",
    "description": "Scrambled Wrecks"
  },
  {
    "date": "2021-10-24",
    "kennelTags": [
      "madrid-h3"
    ],
    "runNumber": 2453,
    "hares": "Not Half Bad, The Vagitarian",
    "location": "Valdemoro",
    "latitude": 40.191352,
    "longitude": -3.661287,
    "locationUrl": "https://goo.gl/maps/2XnFxV1gU5L2",
    "sourceUrl": "https://madridhhh.com/sex-mex-less-run/",
    "description": "Sex-Mex-Less"
  },
  {
    "date": "2021-10-29",
    "kennelTags": [
      "madrid-h3"
    ],
    "runNumber": 2454,
    "hares": "Scrambled Dag",
    "location": "Barajas Metro Station",
    "startTime": "20:00",
    "latitude": 40.474352,
    "longitude": -3.584677,
    "locationUrl": "https://goo.gl/maps/o1dF9mmXVrD1VXvq5",
    "sourceUrl": "https://madridhhh.com/hashoween-2021-run/",
    "description": "Hash-oween 2021"
  },
  {
    "date": "2021-10-31",
    "kennelTags": [
      "madrid-h3"
    ],
    "runNumber": 2455,
    "hares": "Alyssa NN, Bottoms Up",
    "location": "Canillejas, near Camping Osuna",
    "latitude": 40.45348,
    "longitude": -3.602741,
    "locationUrl": "https://goo.gl/maps/LLgUMiC5oHtPjXpa6",
    "sourceUrl": "https://madridhhh.com/highway-to-beer-run/",
    "description": "Highway To Beer"
  },
  {
    "date": "2021-11-07",
    "kennelTags": [
      "madrid-h3"
    ],
    "runNumber": 2456,
    "hares": "Roman NN, Smile Like You Like It",
    "location": "Torrelodones",
    "latitude": 40.570144,
    "longitude": -3.947712,
    "locationUrl": "https://goo.gl/maps/ySntLRt4HjGraNqKA",
    "sourceUrl": "https://madridhhh.com/thoro-run/",
    "description": "ThoRo"
  },
  {
    "date": "2021-11-14",
    "kennelTags": [
      "madrid-h3"
    ],
    "runNumber": 2457,
    "hares": "Howling At The Moon, Not Half Bad",
    "location": "El Gurugú",
    "latitude": 40.456117,
    "longitude": -3.340271,
    "locationUrl": "https://goo.gl/maps/uDhq1VtpsWwVfxrFA).",
    "sourceUrl": "https://madridhhh.com/re-return-to-el-gurugu/",
    "description": "Re-Return To El Gurugú"
  },
  {
    "date": "2021-11-21",
    "kennelTags": [
      "madrid-h3"
    ],
    "runNumber": 2458,
    "hares": "Tim Rat With A Sweet Snatch",
    "location": "Ermita de San Blas (Miraflores de la Sierra)",
    "startTime": "13:00",
    "latitude": 40.788375,
    "longitude": -3.796426,
    "locationUrl": "https://goo.gl/maps/Mm97RiWb96reAJKy7",
    "sourceUrl": "https://madridhhh.com/memorial-run-2021/",
    "description": "Memorial"
  },
  {
    "date": "2021-11-28",
    "kennelTags": [
      "madrid-h3"
    ],
    "runNumber": 2459,
    "hares": "Marina O’hare, Sir Sir Culchie",
    "location": "La Berzosa",
    "startTime": "13:00",
    "latitude": 40.614912,
    "longitude": -3.928358,
    "locationUrl": "https://goo.gl/maps/N3n3SeQKihWmXNpm6",
    "sourceUrl": "https://madridhhh.com/culchie-is-recycling-flour-run/",
    "description": "Culchie Is Recycling Flour"
  },
  {
    "date": "2021-12-05",
    "kennelTags": [
      "madrid-h3"
    ],
    "runNumber": 2460,
    "hares": "Corkscrew, Very Grimm",
    "location": "The car park of Madrid Zoo in Casa de Campo",
    "startTime": "13:00",
    "latitude": 40.407821,
    "longitude": -3.75962,
    "locationUrl": "https://goo.gl/maps/DeLNHUqnHL7U2nFy6",
    "sourceUrl": "https://madridhhh.com/coughlans-do-it-again-in-casa-de-campo/",
    "description": "Coughlans Do It Again In Casa De Campo"
  },
  {
    "date": "2021-12-12",
    "kennelTags": [
      "madrid-h3"
    ],
    "runNumber": 2461,
    "hares": "Scrambled Dag, Tasmanian Devil",
    "location": "Alameda de Osuna",
    "startTime": "13:00",
    "latitude": 40.459097,
    "longitude": -3.593472,
    "locationUrl": "https://goo.gl/maps/rEmLMWCkfhERsiFg8",
    "sourceUrl": "https://madridhhh.com/santa-lucia-2021/",
    "description": "Santa Lucia"
  },
  {
    "date": "2021-12-19",
    "kennelTags": [
      "madrid-h3"
    ],
    "runNumber": 2462,
    "hares": "Bongo Drums., Virtual Cunt",
    "location": "First Car Park in el Pardo",
    "startTime": "13:00",
    "latitude": 40.496864,
    "longitude": -3.758909,
    "locationUrl": "https://goo.gl/maps/KVLzhye5D2U2",
    "sourceUrl": "https://madridhhh.com/santa-claus-is-cummin-to-town-tinsel-run/",
    "description": "Santa Claus Is Cummin To Town"
  },
  {
    "date": "2021-12-26",
    "kennelTags": [
      "madrid-h3"
    ],
    "runNumber": 2463,
    "hares": "Big Foot., Very Grimm",
    "location": "Calle Ofelia Nieto junction with calle de Villaamil",
    "startTime": "13:00",
    "latitude": 40.462775,
    "longitude": -3.708167,
    "locationUrl": "https://goo.gl/maps/i3CwBEfBcrqtJDur8",
    "sourceUrl": "https://madridhhh.com/christmas-hangover-run/",
    "description": "Christmas Hangover"
  },
  {
    "date": "2022-01-02",
    "kennelTags": [
      "madrid-h3"
    ],
    "runNumber": 2464,
    "hares": "Bottoms Up, Something In My Mouth.",
    "location": "Free parking space near San Blas, M-40",
    "startTime": "13:00",
    "latitude": 40.416731,
    "longitude": -3.611048,
    "locationUrl": "https://goo.gl/maps/bSotfAB946CrmM7M7",
    "sourceUrl": "https://madridhhh.com/another-year-another-hash-run/",
    "description": "Another Year, Another Hash"
  },
  {
    "date": "2022-01-09",
    "kennelTags": [
      "madrid-h3"
    ],
    "runNumber": 2465,
    "hares": "David NN, Smile Like You Like It",
    "location": "Calle del Arroyo del Calderillo (Los Berrocales del Jarama)",
    "startTime": "13:00",
    "latitude": 40.477889,
    "longitude": -3.516389,
    "locationUrl": "https://goo.gl/maps/CQeHZovEUh8hFSQv6):",
    "sourceUrl": "https://madridhhh.com/bartels2-run/",
    "description": "Bartels²"
  },
  {
    "date": "2022-01-16",
    "kennelTags": [
      "madrid-h3"
    ],
    "runNumber": 2466,
    "hares": "Smile Like You Like It, Snog The Goblin",
    "location": "El Pardo – near “Restaurante lar de domingo”",
    "latitude": 40.515307,
    "longitude": -3.763068,
    "locationUrl": "https://goo.gl/maps/2XQCuFUUuMy.",
    "sourceUrl": "https://madridhhh.com/last-time-i-came-in-a-taxi-run/",
    "description": "Last Time I Came In A Taxi"
  },
  {
    "date": "2022-01-23",
    "kennelTags": [
      "madrid-h3"
    ],
    "runNumber": 2467,
    "hares": "Not Half Bad, Sex Mex",
    "location": "Valdelatas, Universidad Autonoma area.",
    "startTime": "13:00",
    "latitude": 40.533616,
    "longitude": -3.69272,
    "locationUrl": "https://goo.gl/maps/u1QdGJiAwK92",
    "sourceUrl": "https://madridhhh.com/443rd-anniversary-of-the-treaty-of-utrecht-run/"
  },
  {
    "date": "2022-01-30",
    "kennelTags": [
      "madrid-h3"
    ],
    "runNumber": 2468,
    "hares": "Sir Sir Culchie and Twice a Day",
    "location": "Hoyo de Manzanares, Academia Militar",
    "startTime": "13:00",
    "latitude": 40.62476,
    "longitude": -3.8772,
    "locationUrl": "https://goo.gl/maps/btpXi8WQEKk",
    "sourceUrl": "https://madridhhh.com/culchie-is-reusing-flour-run/",
    "description": "Our Mugs Are Bigger Than Yours"
  },
  {
    "date": "2022-02-06",
    "kennelTags": [
      "madrid-h3"
    ],
    "runNumber": 2469,
    "hares": "Bottoms Up, Professor Spanx",
    "location": "El Escorial side of the bridge over Embalse de Valmayor (the Valmayor Reservoir)",
    "startTime": "13:00",
    "latitude": 40.576788,
    "longitude": -4.051706,
    "locationUrl": "https://goo.gl/maps/yE93a4xaXuzeLAXn6",
    "sourceUrl": "https://madridhhh.com/prowling-tiger-run/",
    "description": "Prowling Tiger"
  },
  {
    "date": "2022-02-13",
    "kennelTags": [
      "madrid-h3"
    ],
    "runNumber": 2470,
    "hares": "Something In My Mouth, Twice A Day",
    "location": "Avenida de Peñalara (near La Granja metro), Alcobendas",
    "startTime": "13:00",
    "latitude": 40.531877,
    "longitude": -3.662256,
    "locationUrl": "https://goo.gl/maps/Vd9AZXjpqnkizcSp6",
    "sourceUrl": "https://madridhhh.com/last-minute-panic-run/",
    "description": "Last Minute Panic"
  },
  {
    "date": "2022-02-20",
    "kennelTags": [
      "madrid-h3"
    ],
    "runNumber": 2471,
    "hares": "Roman NN, Smile Like You Like It",
    "location": "Near Villalba Cercanias Station",
    "startTime": "13:00",
    "latitude": 40.62475,
    "longitude": -4.003833,
    "locationUrl": "https://goo.gl/maps/TMv41NSXwdiKYD5QA",
    "sourceUrl": "https://madridhhh.com/limping-success-run/",
    "description": "Limping Success"
  },
  {
    "date": "2022-02-27",
    "kennelTags": [
      "madrid-h3"
    ],
    "runNumber": 2472,
    "hares": "Not Half Bad, Sex Mex",
    "location": "Valdebebas Oeste, Parque Felipe VI",
    "startTime": "13:00",
    "latitude": 40.488694,
    "longitude": -3.642536,
    "locationUrl": "https://goo.gl/maps/PRthwc5Sri4DFH4t7",
    "sourceUrl": "https://madridhhh.com/if-you-go-down-to-the-park-today-run/",
    "description": "If You Go Down To The Park Today"
  },
  {
    "date": "2022-03-06",
    "kennelTags": [
      "madrid-h3"
    ],
    "runNumber": 2473,
    "hares": "Bottoms Up, Snog The Goblin",
    "location": "Vicálvaro",
    "startTime": "13:00",
    "latitude": 40.392875,
    "longitude": -3.605742,
    "locationUrl": "https://goo.gl/maps/7kW64UwohReqBG3b8",
    "sourceUrl": "https://madridhhh.com/donkeys-ass-run/",
    "description": "Donkey’s Ass"
  },
  {
    "date": "2022-03-13",
    "kennelTags": [
      "madrid-h3"
    ],
    "runNumber": 2474,
    "hares": "El Sordo, Square Root",
    "location": "Car Park in calle Jaraiz (Las Rozas), at the end of the street",
    "startTime": "13:00",
    "latitude": 40.553947,
    "longitude": -3.902984,
    "locationUrl": "https://goo.gl/maps/5yDGmGD1U9kQTPyK6.",
    "sourceUrl": "https://madridhhh.com/square-roots-last-theorem-run/",
    "description": "Square Root’s Last Theorem"
  },
  {
    "date": "2022-03-20",
    "kennelTags": [
      "madrid-h3"
    ],
    "runNumber": 2475,
    "hares": "Marina O’hare, Sir Sir Culchie",
    "location": "Parque de las Colinas, Hoyo de Manzanares area.",
    "startTime": "13:00",
    "latitude": 40.601883,
    "longitude": -3.907848,
    "locationUrl": "https://goo.gl/maps/ytApqBS55mxdRXnj8",
    "sourceUrl": "https://madridhhh.com/the-nimby-run/",
    "description": "Nimby"
  },
  {
    "date": "2022-03-27",
    "kennelTags": [
      "madrid-h3"
    ],
    "runNumber": 2476,
    "hares": "Another Dick In The Wall, Virtual Cunt",
    "location": "Avenida Complutense, Ciudad Universitaria (Madrid)",
    "startTime": "13:00",
    "latitude": 40.448804,
    "longitude": -3.729001,
    "locationUrl": "https://goo.gl/maps/kjiPG5EaTHGsae816",
    "sourceUrl": "https://madridhhh.com/varsity-blues-run/",
    "description": "Varsity Blues"
  },
  {
    "date": "2022-04-03",
    "kennelTags": [
      "madrid-h3"
    ],
    "runNumber": 2477,
    "hares": "Professor Spanx, Smile Like You Like It",
    "location": "Casita del infante, San Lorenzo Del Escorial",
    "startTime": "13:00",
    "latitude": 40.585852,
    "longitude": -4.158583,
    "locationUrl": "https://goo.gl/maps/PFguRyP6JYnBaZ7s5).",
    "sourceUrl": "https://madridhhh.com/ball-breaker-run/",
    "description": "Ball Breaker"
  },
  {
    "date": "2022-04-10",
    "kennelTags": [
      "madrid-h3"
    ],
    "runNumber": 2478,
    "hares": "Bush Warmer, Scrambled Dag",
    "location": "Paracuellos de Jarama",
    "startTime": "13:00",
    "latitude": 40.507868,
    "longitude": -3.528609,
    "locationUrl": "https://goo.gl/maps/hkDeevDT21PC3e6j7).",
    "sourceUrl": "https://madridhhh.com/thewasherwomenwithvertigorun/",
    "description": "Washer Women With Vertigo"
  },
  {
    "date": "2022-04-17",
    "kennelTags": [
      "madrid-h3"
    ],
    "runNumber": 2479,
    "hares": "Corkscrew, Very Grimm",
    "location": "Near Laguna metro in southern Madrid (near corner of Calle de Alhambra and Avenida de Ángel San Briz)",
    "startTime": "13:00",
    "latitude": 40.399118,
    "longitude": -3.744197,
    "locationUrl": "https://goo.gl/maps/6BJ6z2Tdts22",
    "sourceUrl": "https://madridhhh.com/the-jesus-saves-run/",
    "description": "The Jesus Saves"
  },
  {
    "date": "2022-04-22",
    "kennelTags": [
      "madrid-h3"
    ],
    "runNumber": 2480,
    "hares": "Roman NN, Smile Like You Like It",
    "location": "Colonia Mingorrubio, El Pardo",
    "startTime": "13:00",
    "latitude": 40.5345504,
    "longitude": -3.783641,
    "locationUrl": "https://maps.app.goo.gl/ZD41QaasDBhW3V7GA)",
    "sourceUrl": "https://madridhhh.com/the-start-of-the-summer-run/",
    "description": "Start Of The Summer"
  },
  {
    "date": "2022-05-01",
    "kennelTags": [
      "madrid-h3"
    ],
    "runNumber": 2481,
    "hares": "Big Foot, Smile like you like it",
    "location": "near Lago, Casa de Campo",
    "startTime": "13:00",
    "latitude": 40.417948,
    "longitude": -3.72985,
    "locationUrl": "https://goo.gl/maps/2pxkDpirT9E2",
    "sourceUrl": "https://madridhhh.com/the-red-dress-river-run/",
    "description": "Red Dress River"
  },
  {
    "date": "2022-05-08",
    "kennelTags": [
      "madrid-h3"
    ],
    "runNumber": 2482,
    "hares": "Bottoms Up, Professor Spanx",
    "location": "Parque del Oeste (Casa de Campo)",
    "startTime": "13:00",
    "latitude": 40.426509,
    "longitude": -3.724779,
    "locationUrl": "https://goo.gl/maps/gR6pZfzTJuR2",
    "sourceUrl": "https://madridhhh.com/the-deja-vu-run/",
    "description": "Double Déjà Vu"
  },
  {
    "date": "2022-05-12",
    "kennelTags": [
      "madrid-h3"
    ],
    "runNumber": 2483,
    "hares": "Corkscrew, Very Grimm",
    "location": "Boadilla del Monte",
    "startTime": "13:00",
    "latitude": 40.403036,
    "longitude": -3.875081,
    "locationUrl": "https://goo.gl/maps/nHQ3vpgCLoAhgQoB8).",
    "sourceUrl": "https://madridhhh.com/corkscrews-backyard-run/",
    "description": "Corkscrew’s Backyard"
  },
  {
    "date": "2022-05-22",
    "kennelTags": [
      "madrid-h3"
    ],
    "runNumber": 2484,
    "hares": "Roman NN, Smile Like You Like It",
    "location": "Las Rozas",
    "startTime": "13:00",
    "latitude": 40.540349,
    "longitude": -3.948559,
    "locationUrl": "https://goo.gl/maps/VQYtNyHTXQZrGLbb9).",
    "sourceUrl": "https://madridhhh.com/dmw-george-w-bush-redeption-run/",
    "description": "DMW, George W Bush redemption"
  },
  {
    "date": "2022-05-29",
    "kennelTags": [
      "madrid-h3"
    ],
    "runNumber": 2485,
    "hares": "Bongo Drums, Twice a Day",
    "location": "Colmenar Viejo",
    "startTime": "13:00",
    "latitude": 40.648889,
    "longitude": -3.791139,
    "locationUrl": "https://goo.gl/maps/vfM4kn8TH26KkV8S9",
    "sourceUrl": "https://madridhhh.com/gps-will-work-extra-hard-on-this-one-run/",
    "description": "GPS Will Work Extra Hard On This One"
  },
  {
    "date": "2022-06-02",
    "kennelTags": [
      "madrid-h3"
    ],
    "runNumber": 2486,
    "hares": "Scrambled Dag",
    "location": "Coslada, Barrio del Puerto Metro Station",
    "startTime": "20:00",
    "latitude": 40.422478,
    "longitude": -3.56914,
    "locationUrl": "https://goo.gl/maps/ahtfsoJPypQ2",
    "sourceUrl": "https://madridhhh.com/2nd-dag-birthday-of-the-year-run/",
    "description": "2nd Dag Birthday Of The Year"
  },
  {
    "date": "2022-06-05",
    "kennelTags": [
      "madrid-h3"
    ],
    "runNumber": 2487,
    "hares": "Howling at the Moon, Not Half Bad",
    "location": "Calle del Parque, Majadahonda",
    "startTime": "13:00",
    "latitude": 40.470202,
    "longitude": -3.851033,
    "locationUrl": "https://goo.gl/maps/TGHR5DdkbvWQGJx38",
    "sourceUrl": "https://madridhhh.com/the-not-the-queens-jubilee-rn/",
    "description": "Not The Queen´s Jubilee"
  },
  {
    "date": "2022-06-12",
    "kennelTags": [
      "madrid-h3"
    ],
    "runNumber": 2488,
    "hares": "Blow Re Mi, The Vagitarian",
    "location": "near Cuesta del Galván, 2, Aravaca",
    "startTime": "13:00",
    "latitude": 40.450177,
    "longitude": -3.768069,
    "locationUrl": "https://goo.gl/maps/9Sd8r3AGHAePcXRN7)",
    "sourceUrl": "https://madridhhh.com/blow-my-vag-run/",
    "description": "Blow My Vag"
  },