[
  {
    "date": "2023-07-01",
    "kennelTags": [
      "sembach-h3"
    ],
    "title": "Sembach Hash - Red, white, and booze",
    "runNumber": 1163,
    "startTime": "14:00",
    "hares": "42 ounces of wait what?",
    "location": "Hauptstraße 1, 67697 Otterberg",
    "latitude": 49.4861005,
    "longitude": 7.7334439
  },
  {
    "date": "2023-07-15",
    "kennelTags": [
      "sembach-h3"
    ],
    "title": "Sembach Hash - Red Dress",
    "runNumber": 1164,
    "startTime": "16:00",
    "hares": "Sir Lost a Lot",
    "location": "Philipp-Mees-Platz, Soccer Players near Train Station Kaiserslautern",
    "latitude": 49.4370274,
    "longitude": 7.7692713
  },
  {
    "date": "2023-07-26",
    "kennelTags": [
      "sembach-h3"
    ],
    "title": "Drinking Practice",
    "runNumber": null,
    "startTime": "18:00",
    "location": "Unknown"
  },
  {
    "date": "2023-07-29",
    "kennelTags": [
      "sembach-h3"
    ],
    "title": "Sembach Hash 1165 - Love Balls & Engine Fkr",
    "runNumber": 1165,
    "startTime": "16:00",
    "hares": "Love Balls - Engine Fucker",
    "location": "https://goo.gl/maps/sr1Cd6sg3K2rd4D57",
    "latitude": 49.45799135342906,
    "longitude": 7.760832308737649
  },
  {
    "date": "2023-08-12",
    "kennelTags": [
      "sembach-h3"
    ],
    "title": "Sembach Hash 1166 - Tunnel of Love & WWW",
    "runNumber": 1166,
    "startTime": "14:00",
    "hares": "Tunnel of Love, World Wide Whore",
    "location": "Messe platz, Kaiserslautern",
    "latitude": 49.443127846661035,
    "longitude": 7.786058050265164
  },
  {
    "date": "2023-08-26",
    "kennelTags": [
      "sembach-h3"
    ],
    "title": "Sembach Hash 1167 - We bid farewell to Cum in something",
    "runNumber": 1167,
    "startTime": "16:00",
    "hares": "Cum in Sumthing",
    "location": "Landstuhl Bahn Hof",
    "latitude": 49.41704038557695,
    "longitude": 7.564854772823436
  },
  {
    "date": "2023-09-09",
    "kennelTags": [
      "sembach-h3"
    ],
    "title": "Sembach Trail 1168 - Bad Drunkheim Sausage Heist",
    "runNumber": 1168,
    "startTime": "12:00",
    "location": "Bad Durkheim, Germany",
    "latitude": 49.461005626910186,
    "longitude": 8.170272019723273
  },
  {
    "date": "2023-09-23",
    "kennelTags": [
      "sembach-h3"
    ],
    "title": "Sembach Trail 1169 – Don’t wine about another fest",
    "runNumber": 1169,
    "startTime": "14:00",
    "location": "Neustadt Hauptbahnhof",
    "latitude": 49.34985109447726,
    "longitude": 8.140863279841023
  },
  {
    "date": "2023-10-07",
    "kennelTags": [
      "sembach-h3"
    ],
    "title": "Sembach Hash 1170 - Deepthroat Dinner Date Dine and Dash",
    "runNumber": 1170,
    "startTime": "14:00",
    "location": "Near Enkenbach Bahnhof - GPS: 49.491326, 7.898796",
    "latitude": 49.488557,
    "longitude": 7.897138
  },
  {
    "date": "2023-11-04",
    "kennelTags": [
      "sembach-h3"
    ],
    "title": "Sembach Hash 1171 - In-Out-In Misman Change-over",
    "runNumber": 1171,
    "startTime": "14:00",
    "hares": "But His Nut"
  },
  {
    "date": "2023-11-18",
    "kennelTags": [
      "sembach-h3"
    ],
    "title": "Sembach Trail 1174 - 42ozs of…wait what, it’s my birfday",
    "runNumber": 1174,
    "startTime": "14:00",
    "hares": "42 Oz’s of Wait What? and Just Zach",
    "location": "Reichswaldstraße 7, 66877 Ramstein-Miesenbach",
    "latitude": 49.44390029946709,
    "longitude": 7.570468010833721
  },
  {
    "date": "2023-11-27",
    "kennelTags": [
      "sembach-h3"
    ],
    "title": "Sembach Trail 1193 - Beaver Full Moon",
    "runNumber": 1193,
    "startTime": "19:00",
    "hares": "Takes Three to Make Me Cum",
    "location": "Mühlweg 19, Erdesbach"
  },
  {
    "date": "2024-02-03",
    "kennelTags": [
      "sembach-h3"
    ],
    "title": "Sembach Hash Trail #1203",
    "runNumber": 1203,
    "startTime": "14:00",
    "hares": "Sir Lost a Lot & Surprise Hares",
    "location": "Erwin-Schrödinger-Straße 52, 67663 Kaiserslautern",
    "latitude": 49.4247522360817,
    "longitude": 7.756708713434072
  },
  {
    "date": "2025-08-09",
    "kennelTags": [
      "sembach-h3"
    ],
    "title": "Sembach Hash Trail 1249 (Full Moon)",
    "runNumber": 1249,
    "startTime": "18:00",
    "hares": "Dame Oppai, Semen Commander",
    "location": "Parking Lot near Barbarossaring 30, 67655 Kaiserslautern, Germany.  (49.4438239, 7.7853447)",
    "latitude": 49.44312665601324,
    "longitude": 7.78465233799242
  },
  {
    "date": "2025-08-09",
    "kennelTags": [
      "sembach-h3"
    ],
    "title": "Sembach Hash Trail 1250",
    "runNumber": 1250,
    "startTime": "16:00",
    "hares": "Dame Oppai, Semen Commander",
    "location": "Parking Lot near Barbarossaring 30 67655 Kaiserslautern Germany   (49.4438239, 7.7853447)",
    "latitude": 49.443143428784836,
    "longitude": 7.784487238748905
  },
  {
    "date": "2025-08-23",
    "kennelTags": [
      "sembach-h3"
    ],
    "title": "Sembach Hash Trail 1251 – Gastro Pre-Game",
    "runNumber": 1251,
    "startTime": "14:00",
    "hares": "Soccer Mom Tom Tom",
    "location": "Kaiserslautern West HBF",
    "latitude": 49.43718432130993,
    "longitude": 7.770996076850106
  },
  {
    "date": "2025-09-12",
    "kennelTags": [
      "sembach-h3"
    ],
    "title": "2025 End-of-Summer",
    "runNumber": 1254,
    "startTime": "16:00",
    "hares": "Mystery Hares",
    "location": "Jugendfreizeitstätte Lindelbrunn",
    "latitude": 49.14888,
    "longitude": 7.90018
  },
  {
    "date": "2025-09-20",
    "kennelTags": [
      "sembach-h3"
    ],
    "title": "Sembach Invades Frankfurt HHH Red Dress",
    "runNumber": 1255,
    "startTime": "16:00",
    "hares": "Hanseatic Sl#t & Co-Hare",
    "location": "Frankfurt City Rothschild Park",
    "latitude": 50.117894,
    "longitude": 8.6702504
  },
  {
    "date": "2025-09-21",
    "kennelTags": [
      "sembach-h3"
    ],
    "title": "Bad Drunkheim",
    "runNumber": 1256,
    "startTime": "12:45",
    "hares": "World Wide Whore",
    "location": "Wurstmarktbrunnen, Bad Durkheim",
    "latitude": 49.46139,
    "longitude": 8.17032
  },
  {
    "date": "2025-10-04",
    "kennelTags": [
      "sembach-h3"
    ],
    "title": "Lautrer Oktoberfest",
    "runNumber": 1256,
    "startTime": "16:00",
    "hares": "Whore With No Name, World Wide Whore",
    "location": "Vogelweh Station",
    "latitude": 49.4386937,
    "longitude": 7.7067902
  },
  {
    "date": "2025-10-06",
    "kennelTags": [
      "sembach-h3"
    ],
    "title": "Harvest Moon",
    "runNumber": 1257,
    "startTime": "18:00",
    "hares": "TBD",
    "location": "Kaiserslautern",
    "latitude": 49.4447,
    "longitude": 7.769004
  },
  {
    "date": "2025-10-18",
    "kennelTags": [
      "sembach-h3"
    ],
    "title": "Regularly Scheduled Trail",
    "runNumber": 1258,
    "startTime": "14:00",
    "hares": "Semen Commander , Whore With No Name",
    "location": "Mitfahrerparkplatz PRE-Park",
    "latitude": 49.457965,
    "longitude": 7.805158
  },
  {
    "date": "2025-11-01",
    "kennelTags": [
      "sembach-h3"
    ],
    "title": "Cancelled - Day of the Dead Hash",
    "runNumber": 1259,
    "startTime": "14:00",
    "hares": "Teacher's Pet",
    "location": "Jettenbach",
    "latitude": 49.532114,
    "longitude": 7.555943
  },
  {
    "date": "2025-11-07",
    "kennelTags": [
      "sembach-h3"
    ],
    "title": "7-11 under the Sembach Full Moon",
    "runNumber": 1260,
    "startTime": "19:00",
    "hares": "Whore With No Name, World Wide Whore",
    "location": "Philipp-Mees-Platz",
    "latitude": 49.43742,
    "longitude": 7.77172
  },
  {
    "date": "2025-11-15",
    "kennelTags": [
      "sembach-h3"
    ],
    "title": "Regularly Scheduled Trail",
    "runNumber": 1261,
    "startTime": "14:00",
    "hares": "Love Balls",
    "location": "Parkplatz Kindsbach",
    "latitude": 49.412617,
    "longitude": 7.6103674
  },
  {
    "date": "2025-11-29",
    "kennelTags": [
      "sembach-h3"
    ],
    "title": "Turkey Trot",
    "runNumber": 1262,
    "startTime": "14:00",
    "hares": "Broke My Cock & Family Vibes",
    "location": "Soccer Players near the Kaiserslautern HBF.",
    "latitude": 49.43742,
    "longitude": 7.77172
  },
  {
    "date": "2025-12-04",
    "kennelTags": [
      "sembach-h3"
    ],
    "title": "Cold Moon",
    "runNumber": 1263,
    "startTime": "18:00",
    "hares": "Came Too Soon"
  },
  {
    "date": "2025-12-12",
    "kennelTags": [
      "sembach-h3"
    ],
    "title": "12 Down Downs of Hashmas",
    "runNumber": 1264,
    "startTime": "18:00",
    "hares": "Sir Lost A Lot",
    "location": "Kaiserslautern HbF",
    "latitude": 49.43742,
    "longitude": 7.77172
  },
  {
    "date": "2025-12-13",
    "kennelTags": [
      "sembach-h3"
    ],
    "title": "Sembach 12 Down Downs Of Hashmas",
    "runNumber": 1265,
    "startTime": "12:22",
    "location": "Phillipp Mees Platz Kaiserslautern",
    "latitude": 49.43742,
    "longitude": 7.77172
  },
  {
    "date": "2025-12-27",
    "kennelTags": [
      "sembach-h3"
    ],
    "title": "Regularly Scheduled Trail",
    "runNumber": 1266,
    "startTime": "14:00",
    "hares": "42 oz's of Wait What, Came Too Soon"
  },
  {
    "date": "2025-12-31",
    "kennelTags": [
      "sembach-h3"
    ],
    "title": "NYE Pub Crawl in Heidelberg",
    "runNumber": 1267,
    "startTime": "18:00",
    "hares": "Came Too Soon",
    "location": "Heidelberg Marriott",
    "latitude": 49.409385,
    "longitude": 8.672572
  },
  {
    "date": "2026-01-03",
    "kennelTags": [
      "sembach-h3"
    ],
    "title": "Wolf Moon",
    "runNumber": 1268,
    "startTime": "16:00",
    "hares": "Hare: 42oz of... Wait What?",
    "location": "Bahnhof Lampertsmühle-Otterbach",
    "latitude": 49.48357,
    "longitude": 7.72955
  },
  {
    "date": "2026-01-10",
    "kennelTags": [
      "sembach-h3"
    ],
    "title": "F*Off Too Soon’s “Last Trail”",
    "runNumber": 1269,
    "startTime": "14:00",
    "hares": "42 oz's of Wait What",
    "location": "Netto Market Parking Lot",
    "latitude": 49.435147,
    "longitude": 7.767923
  },
  {
    "date": "2026-01-24",
    "kennelTags": [
      "sembach-h3"
    ],
    "title": "Sembach Hash Trail 1270 – Winter Wein Hike",
    "runNumber": 1270,
    "startTime": "10:15",
    "hares": "Missdirection, Soccer Mom Tom Tom",
    "location": "Freinsheim",
    "latitude": 49.507034,
    "longitude": 8.212908
  },
  {
    "date": "2026-02-07",
    "kennelTags": [
      "sembach-h3"
    ],
    "title": "A Semen Whore's adventure",
    "runNumber": 1271,
    "startTime": "14:00",
    "hares": "Semen Commander , Whore With No Name"
  },
  {
    "date": "2026-02-21",
    "kennelTags": [
      "sembach-h3"
    ],
    "title": "Tunnel of Semen",
    "runNumber": 1272,
    "startTime": "14:00",
    "hares": "World Wide Whore",
    "location": "Messe platz, Kaiserslautern",
    "latitude": 49.44313,
    "longitude": 7.78606
  },
  {
    "date": "2026-03-07",
    "kennelTags": [
      "sembach-h3"
    ],
    "title": "A trail not in K-town",
    "runNumber": 1275,
    "startTime": "14:00",
    "hares": "But His Nut",
    "location": "Miesenbach Train Station",
    "latitude": 49.4564,
    "longitude": 7.5484
  },
  {
    "date": "2026-03-13",
    "kennelTags": [
      "sembach-h3"
    ],
    "title": "Heidelberg Green Dress Run Weekend - Friday Pubcrawl",
    "runNumber": 1276,
    "startTime": "18:00",
    "location": "Original Bootcamp - Outdoor Fitness | Theodor-Heuss-Brücke Uferstraße, 69120 Heidelberg, Germany",
    "latitude": 49.41357,
    "longitude": 8.6923
  },
  {
    "date": "2026-03-14",
    "kennelTags": [
      "sembach-h3"
    ],
    "title": "Heidelberg Green Dress Run Weekend - Saturday Hash",
    "runNumber": 1277,
    "startTime": "12:00",
    "location": "Original Bootcamp - Outdoor Fitness | Theodor-Heuss-Brücke Uferstraße, 69120 Heidelberg, Germany",
    "latitude": 49.41357,
    "longitude": 8.6923
  },
  {
    "date": "2026-03-14",
    "kennelTags": [
      "sembach-h3"
    ],
    "title": "Heidelberg Green Dress Run Weekend - Saturday Pubcrawl",
    "runNumber": 1278,
    "startTime": "18:00",
    "location": "Monkey Statue",
    "latitude": 49.41357,
    "longitude": 8.6923
  },
  {
    "date": "2026-03-15",
    "kennelTags": [
      "sembach-h3"
    ],
    "title": "Combined Green Dress Run Weekend - Hangover Trail",
    "runNumber": 1,
    "startTime": "12:00",
    "hares": "Swans",
    "location": "Heidelberg",
    "latitude": 49.41377,
    "longitude": 8.67549
  },
  {
    "date": "2026-03-21",
    "kennelTags": [
      "sembach-h3"
    ],
    "title": "Drinking Practice NOT in K-Town",
    "runNumber": 1278,
    "startTime": "16:00",
    "hares": "Guinness & Jamison",
    "location": "Kaiserstraße 42, 66849 Landstuhl",
    "latitude": 49.412096909418594,
    "longitude": 7.5693120070292
  },
  {
    "date": "2026-04-04",
    "kennelTags": [
      "sembach-h3"
    ],
    "title": "The Great Easter Booze Hunt Hash",
    "runNumber": 1280,
    "startTime": "14:00",
    "hares": "42oz of What What",
    "location": "Grillhütte Otterbach",
    "latitude": 49.49436,
    "longitude": 7.73357
  },
  {
    "date": "2026-04-18",
    "kennelTags": [
      "sembach-h3"
    ],
    "title": "Sembach Trail 1276 K-Town Wine Walk Invasion",
    "runNumber": 1276,
    "startTime": "11:00",
    "hares": "Broke My Cock",
    "location": "Philipp-Mees-Platz",
    "latitude": 49.43739716423844,
    "longitude": 7.771746150562088
  },
  {
    "date": "2026-05-30",
    "kennelTags": [
      "sembach-h3"
    ],
    "title": "A trail in K-town but like, cool!!!!",
    "runNumber": 1277,
    "startTime": "16:00",
    "location": "Kaiserslautern West Bahnhof"
  },
  {
    "date": "2026-06-13",
    "kennelTags": [
      "sembach-h3"
    ],
    "title": "MIS MAN In / Out Trail # 1281",
    "runNumber": 1278,
    "startTime": "14:00",
    "hares": "World Wide Whore"
  },
  {
    "date": "2026-06-27",
    "kennelTags": [
      "sembach-h3"
    ],
    "title": "Go Fuck Off 42",
    "runNumber": 1282,
    "startTime": "16:20",
    "hares": "Just Ryan & 42 oz of…wait what",
    "location": "Einsiedlerhof Train Station",
    "latitude": 49.430844362431976,
    "longitude": 7.661823956467845
  }
]
