[
  {
    "date": "2022-07-20",
    "kennelTags": [
      "tnth3"
    ],
    "title": "Run #1933 - Charwoods",
    "runNumber": 1,
    "startTime": "18:30",
    "hares": "Simon the Bastard / Duke of Edinburgh"
  },
  {
    "date": "2022-07-27",
    "kennelTags": [
      "tnth3"
    ],
    "title": "Run #1934 - Harbour Inn",
    "runNumber": 1934,
    "startTime": "18:30",
    "hares": "Megasaurarse"
  },
  {
    "date": "2022-08-10",
    "kennelTags": [
      "tnth3"
    ],
    "title": "Run # 1936 - Portobello Tap",
    "runNumber": 1936,
    "startTime": "18:30",
    "hares": "Simon the Bastard / Duke of Edinburgh"
  },
  {
    "date": "2022-08-17",
    "kennelTags": [
      "tnth3"
    ],
    "title": "Run #1937 - Kilderkin",
    "runNumber": 1937,
    "startTime": "18:30",
    "hares": "Tonguelasher"
  },
  {
    "date": "2022-08-24",
    "kennelTags": [
      "tnth3"
    ],
    "title": "Run #1938 - Festival Run - Assembly",
    "runNumber": 1938,
    "startTime": "18:30",
    "hares": "DMC / Doris Made Me Come"
  },
  {
    "date": "2022-08-31",
    "kennelTags": [
      "tnth3"
    ],
    "title": "Run #1939 - Bullfinch",
    "runNumber": 1939,
    "startTime": "18:30",
    "hares": "Big Mac",
    "location": "EH6 7JT Edinburgh",
    "latitude": 55.97576,
    "longitude": -3.16018
  },
  {
    "date": "2022-09-07",
    "kennelTags": [
      "tnth3"
    ],
    "title": "Run # 1940 - Lord Nelson",
    "runNumber": 1940,
    "startTime": "18:30",
    "hares": "Septic Sporran"
  },
  {
    "date": "2022-09-14",
    "kennelTags": [
      "tnth3"
    ],
    "title": "Run # 1941 - Thomson's",
    "runNumber": 1941,
    "startTime": "18:30",
    "hares": "Bad News, Postman Pat"
  },
  {
    "date": "2022-09-21",
    "kennelTags": [
      "tnth3"
    ],
    "title": "Run #1942 - Old Bell Inn",
    "runNumber": 1942,
    "startTime": "18:30",
    "hares": "Jemima Pedalduck, Shite Saboteur"
  },
  {
    "date": "2022-09-28",
    "kennelTags": [
      "tnth3"
    ],
    "title": "Run # 1943 - Kilderkin",
    "runNumber": 1943,
    "startTime": "18:30",
    "hares": "Red Jumper"
  },
  {
    "date": "2022-10-05",
    "kennelTags": [
      "tnth3"
    ],
    "title": "Run #1944 - The Grosvenor",
    "runNumber": 1944,
    "startTime": "18:30",
    "hares": "Squatter Spotter"
  },
  {
    "date": "2022-10-12",
    "kennelTags": [
      "tnth3"
    ],
    "title": "Run #1945 - Roseburn Bar",
    "runNumber": 1945,
    "startTime": "18:30",
    "hares": "Mongoose"
  },
  {
    "date": "2022-10-19",
    "kennelTags": [
      "tnth3"
    ],
    "title": "Run # 1946 - Winstons",
    "runNumber": 1946,
    "startTime": "18:30"
  },
  {
    "date": "2022-10-26",
    "kennelTags": [
      "tnth3"
    ],
    "title": "Run # 1947 - Old Bell Innn",
    "runNumber": 1947,
    "startTime": "18:30",
    "hares": "Full Steam",
    "location": "The Old Bell",
    "latitude": 55.934967527719,
    "longitude": -3.179162044714
  },
  {
    "date": "2022-11-02",
    "kennelTags": [
      "tnth3"
    ],
    "title": "Run # 1948 - Ye Olde Inn",
    "runNumber": 1948,
    "startTime": "18:30"
  },
  {
    "date": "2022-11-09",
    "kennelTags": [
      "tnth3"
    ],
    "title": "Run # 1949 - Clark's Bar",
    "runNumber": 1949,
    "startTime": "18:30"
  },
  {
    "date": "2022-11-16",
    "kennelTags": [
      "tnth3"
    ],
    "title": "Run #1950 - AGM RUN - Newbarns Brewery Taproom",
    "runNumber": 1950,
    "startTime": "18:30",
    "hares": "Fleshmob",
    "location": "13 Jane Street, Edinburgh, EH6 5FP, United Kingdom",
    "latitude": 55.96904,
    "longitude": -3.17369
  },
  {
    "date": "2022-11-23",
    "kennelTags": [
      "tnth3"
    ],
    "title": "Run # 1951 - Argyle Bar",
    "runNumber": 1951,
    "startTime": "18:30",
    "hares": "Captain Bimbo, Vital Spark"
  },
  {
    "date": "2022-11-30",
    "kennelTags": [
      "tnth3"
    ],
    "title": "Run #1952 - The Regent",
    "runNumber": 1952,
    "startTime": "18:30",
    "hares": "Rugrat, Tonguelasher"
  },
  {
    "date": "2022-12-07",
    "kennelTags": [
      "tnth3"
    ],
    "title": "Run #1953 - Leslie's Bar",
    "runNumber": 1953,
    "startTime": "18:30",
    "hares": "A.N.Other, DMC / Doris Made Me Come"
  },
  {
    "date": "2022-12-09",
    "kennelTags": [
      "tnth3"
    ],
    "title": "Christmas Party",
    "runNumber": 1952,
    "startTime": "13:00"
  },
  {
    "date": "2022-12-14",
    "kennelTags": [
      "tnth3"
    ],
    "title": "Run #1954 - Colinton Inn",
    "runNumber": 1954,
    "startTime": "18:30",
    "hares": "80/-"
  },
  {
    "date": "2022-12-21",
    "kennelTags": [
      "tnth3"
    ],
    "title": "Run #1955 - Doctors Bar",
    "runNumber": 1955,
    "startTime": "18:30"
  },
  {
    "date": "2022-12-28",
    "kennelTags": [
      "tnth3"
    ],
    "title": "Run #1956 - Roseburn Bar",
    "runNumber": 1956,
    "startTime": "18:30",
    "hares": "Clarty Carthy, Mac the Dick"
  },
  {
    "date": "2023-01-04",
    "kennelTags": [
      "tnth3"
    ],
    "title": "Run #1957 - Ormelie Tavern",
    "runNumber": 1957,
    "startTime": "18:30",
    "hares": "Abbie James, ARSE²"
  },
  {
    "date": "2023-01-11",
    "kennelTags": [
      "tnth3"
    ],
    "title": "Run #1958 - Orchard Bar",
    "runNumber": 1958,
    "startTime": "18:30",
    "hares": "Lost Contact, Lost Patrol"
  },
  {
    "date": "2023-01-18",
    "kennelTags": [
      "tnth3"
    ],
    "title": "Run #1959 - Portobello Bowling Club",
    "runNumber": 1959,
    "startTime": "18:30",
    "hares": "Full Steam , Red Jumper"
  },
  {
    "date": "2023-01-25",
    "kennelTags": [
      "tnth3"
    ],
    "title": "Run #1960 - Golden Rule",
    "runNumber": 1960,
    "startTime": "18:30",
    "hares": "Jemima Pedalduck"
  },
  {
    "date": "2023-02-01",
    "kennelTags": [
      "tnth3"
    ],
    "title": "Run #1961 - Steel Coulson Southside",
    "runNumber": 1961,
    "startTime": "18:30"
  },
  {
    "date": "2023-02-08",
    "kennelTags": [
      "tnth3"
    ],
    "title": "Run #1962 - Winstons",
    "runNumber": 1962,
    "startTime": "18:30"
  },
  {
    "date": "2023-02-15",
    "kennelTags": [
      "tnth3"
    ],
    "title": "#1963 - Caley Sample Room",
    "runNumber": 1963,
    "startTime": "18:30",
    "hares": "Inspector Gorse, Megasaurarse"
  },
  {
    "date": "2023-02-22",
    "kennelTags": [
      "tnth3"
    ],
    "title": "Run #1964 - Starbar",
    "runNumber": 1964,
    "startTime": "18:30",
    "hares": "Headless Mullet , Jump Start"
  },
  {
    "date": "2023-03-01",
    "kennelTags": [
      "tnth3"
    ],
    "title": "Run #1965 - Ye Olde Inn",
    "runNumber": 1965,
    "startTime": "18:30"
  },
  {
    "date": "2023-03-08",
    "kennelTags": [
      "tnth3"
    ],
    "title": "Run #1966 - Ryrie's Bar",
    "runNumber": 1966,
    "startTime": "18:30",
    "hares": "Emu"
  },
  {
    "date": "2023-03-15",
    "kennelTags": [
      "tnth3"
    ],
    "title": "Run #1967 - Orchard Bar",
    "runNumber": 1967,
    "startTime": "18:30"
  },
  {
    "date": "2023-03-22",
    "kennelTags": [
      "tnth3"
    ],
    "title": "#1968 - Newbarns Brewery & Taproom",
    "runNumber": 1968,
    "startTime": "18:30",
    "hares": "Septic Sporran"
  },
  {
    "date": "2023-03-29",
    "kennelTags": [
      "tnth3"
    ],
    "title": "Run #1969 - Roseburn Bar",
    "runNumber": 1969,
    "startTime": "18:30",
    "hares": "Multi Tasking Tool"
  },
  {
    "date": "2023-04-05",
    "kennelTags": [
      "tnth3"
    ],
    "title": "Run #1970 - Old Eastway Tap (Leith)",
    "runNumber": 1970,
    "startTime": "18:30",
    "hares": "Inspector Gorse, Red Jumper"
  },
  {
    "date": "2023-04-12",
    "kennelTags": [
      "tnth3"
    ],
    "title": "Run #1971 - St Bernard's Bar",
    "runNumber": 1971,
    "startTime": "18:30"
  },
  {
    "date": "2023-04-19",
    "kennelTags": [
      "tnth3"
    ],
    "title": "Run #1972 - Harbour Inn, Newhaven",
    "runNumber": 1972,
    "startTime": "18:30",
    "hares": "Headless Mullet , Shaggus"
  },
  {
    "date": "2023-04-26",
    "kennelTags": [
      "tnth3"
    ],
    "title": "Run #1973 - The Willow, Restalrig",
    "runNumber": 1973,
    "startTime": "18:30",
    "hares": "Fleshmob"
  },
  {
    "date": "2023-05-03",
    "kennelTags": [
      "tnth3"
    ],
    "title": "Run #1974 - Steel Coulson Southside",
    "runNumber": 1974,
    "startTime": "18:30",
    "hares": "Simon the Bastard / Duke of Edinburgh",
    "location": "Steel Coulson Southside",
    "latitude": 55.93755,
    "longitude": -3.19071
  },
  {
    "date": "2023-05-10",
    "kennelTags": [
      "tnth3"
    ],
    "title": "Run #1975 - Winstons (Corstorphine)",
    "runNumber": 1975,
    "startTime": "18:30"
  },
  {
    "date": "2023-05-17",
    "kennelTags": [
      "tnth3"
    ],
    "title": "Run #1976 - Roseburn Bar (Roseburn)",
    "runNumber": 1976,
    "startTime": "18:30",
    "hares": "Clarty Carthy, Mac the Dick"
  },
  {
    "date": "2023-05-24",
    "kennelTags": [
      "tnth3"
    ],
    "title": "Run #1977 - Colinton Inn (Colinton)",
    "runNumber": 1977,
    "startTime": "18:30",
    "hares": "70/-, 80/-"
  },
  {
    "date": "2023-05-31",
    "kennelTags": [
      "tnth3"
    ],
    "title": "Run #1978 - Grange Club (Stockbridge)",
    "runNumber": 1978,
    "startTime": "18:30"
  },
  {
    "date": "2023-06-07",
    "kennelTags": [
      "tnth3"
    ],
    "title": "Run #1979 - Bennet's of Morningside (Morningside)",
    "runNumber": 1979,
    "startTime": "18:30",
    "hares": "Bambi, Used to Be Nice"
  },
  {
    "date": "2023-06-09",
    "kennelTags": [
      "tnth3"
    ],
    "title": "Croquet Night",
    "runNumber": 1980,
    "startTime": "18:00"
  },
  {
    "date": "2023-06-14",
    "kennelTags": [
      "tnth3"
    ],
    "title": "Run #1980 - Cumberland Bar (New Town)",
    "runNumber": 1980,
    "startTime": "18:30",
    "hares": "Hairspray"
  },
  {
    "date": "2023-06-21",
    "kennelTags": [
      "tnth3"
    ],
    "title": "Run #1981 - Steel Coulson Southside (Newington)",
    "runNumber": 1981,
    "startTime": "18:30",
    "hares": "Jemima Pedalduck"
  },
  {
    "date": "2023-06-28",
    "kennelTags": [
      "tnth3"
    ],
    "title": "Run #1982 - Thomson's (Haymarket)",
    "runNumber": 1982,
    "startTime": "18:30",
    "hares": "Bad News, Postman Pat"
  },
  {
    "date": "2023-07-05",
    "kennelTags": [
      "tnth3"
    ],
    "title": "Run #1983 - Portobello Tap (Portobello)",
    "runNumber": 1983,
    "startTime": "18:30",
    "hares": "Red Jumper, Simon the Bastard / Duke of Edinburgh"
  },
  {
    "date": "2023-07-12",
    "kennelTags": [
      "tnth3"
    ],
    "title": "Run #1984 - Argyle Bar (Marchmont)",
    "runNumber": 1984,
    "startTime": "18:30",
    "hares": "Canadian Club"
  },
  {
    "date": "2023-07-19",
    "kennelTags": [
      "tnth3"
    ],
    "title": "Run #1985 - Willow (Restalrig)",
    "runNumber": 1985,
    "startTime": "18:30",
    "hares": "Abbie James, ARSE²"
  },
  {
    "date": "2023-07-26",
    "kennelTags": [
      "tnth3"
    ],
    "title": "Run #1986 - Leslie's Bar (Newington)",
    "runNumber": 1986,
    "startTime": "18:30",
    "hares": "Doris"
  },
  {
    "date": "2023-08-02",
    "kennelTags": [
      "tnth3"
    ],
    "title": "Run #1987 - The Bonnington (Leith)",
    "runNumber": 1987,
    "startTime": "18:30"
  },
  {
    "date": "2023-08-09",
    "kennelTags": [
      "tnth3"
    ],
    "title": "Run #1988 - Newbarns Brewery (Leith)",
    "runNumber": 1988,
    "startTime": "18:30",
    "hares": "Handmaiden , Nae Desperate"
  },
  {
    "date": "2023-08-16",
    "kennelTags": [
      "tnth3"
    ],
    "title": "Run #1989 RED DRESS RUN - Assembly (George Square)",
    "runNumber": 1989,
    "startTime": "18:30",
    "hares": "DMC / Doris Made Me Come, Fleshmob"
  },
  {
    "date": "2023-08-23",
    "kennelTags": [
      "tnth3"
    ],
    "title": "Run #1990 - Roseburn Bar (Roseburn)",
    "runNumber": 1990,
    "startTime": "18:30",
    "hares": "Clarty Carthy, Mac the Dick"
  },
  {
    "date": "2023-08-30",
    "kennelTags": [
      "tnth3"
    ],
    "title": "Run #1991 - Riccarton Inn (Currie)",
    "runNumber": 1991,
    "startTime": "18:30",
    "hares": "Blind Doug"
  },
  {
    "date": "2023-09-13",
    "kennelTags": [
      "tnth3"
    ],
    "title": "Run #1993 - Roseburn Bar (Roseburn)",
    "runNumber": 1993,
    "startTime": "18:30",
    "hares": "Mongoose"
  },
  {
    "date": "2023-09-20",
    "kennelTags": [
      "tnth3"
    ],
    "title": "Run #1994 - Brass Monkey Grange (Newington)",
    "runNumber": 1994,
    "startTime": "18:30"
  },
  {
    "date": "2023-09-27",
    "kennelTags": [
      "tnth3"
    ],
    "title": "Run #1995 - Winstons (Corstorphine)",
    "runNumber": 1995,
    "startTime": "18:30"
  },
  {
    "date": "2023-10-04",
    "kennelTags": [
      "tnth3"
    ],
    "title": "Run #1996 - Willow (Restalrig)",
    "runNumber": 1996,
    "startTime": "18:30",
    "hares": "Fleshmob"
  },
  {
    "date": "2023-10-11",
    "kennelTags": [
      "tnth3"
    ],
    "title": "Run #1997 - Old Bell (Newington)",
    "runNumber": 1997,
    "startTime": "18:30",
    "hares": "DMC / Doris Made Me Come, shite saboteur"
  },
  {
    "date": "2023-10-18",
    "kennelTags": [
      "tnth3"
    ],
    "title": "Run #1998 - Kilderkin (Old Town)",
    "runNumber": 1998,
    "startTime": "18:30",
    "hares": "Simon the Bastard / Duke of Edinburgh"
  },
  {
    "date": "2023-10-20",
    "kennelTags": [
      "tnth3"
    ],
    "title": "TNT H3 2000th Weekend",
    "runNumber": 1992
  },
  {
    "date": "2023-10-20",
    "kennelTags": [
      "tnth3"
    ],
    "title": "TNT H3 2000th - Red Dress Run - Friday",
    "runNumber": 1993,
    "startTime": "18:30"
  },
  {
    "date": "2023-10-21",
    "kennelTags": [
      "tnth3"
    ],
    "title": "TNT H3 2000th - Main Event - Saturday",
    "runNumber": 1992,
    "startTime": "14:00",
    "hares": "Tonguelasher"
  },
  {
    "date": "2023-10-22",
    "kennelTags": [
      "tnth3"
    ],
    "title": "TNT H3 2000th - EH3 Sunday Trail",
    "runNumber": 1999,
    "startTime": "11:00",
    "hares": "Septic Sporran"
  },
  {
    "date": "2023-10-25",
    "kennelTags": [
      "tnth3"
    ],
    "title": "Run #1999 - Steel Coulson Southside (Newington)",
    "runNumber": 1999,
    "startTime": "18:30",
    "hares": "Red Jumper"
  },
  {
    "date": "2023-11-01",
    "kennelTags": [
      "tnth3"
    ],
    "title": "Run #2000 - Inverleith Rugby Club (Warriston)",
    "runNumber": 2000,
    "startTime": "18:30",
    "hares": "Fleshmob"
  },
  {
    "date": "2023-11-08",
    "kennelTags": [
      "tnth3"
    ],
    "title": "Run 2001 - Ye Olde Inn, Daivdson's Mains",
    "runNumber": 2001,
    "startTime": "18:30"
  },
  {
    "date": "2023-11-15",
    "kennelTags": [
      "tnth3"
    ],
    "title": "Run #2002 - Leslie's Bar (Newington)",
    "runNumber": 2002,
    "startTime": "18:30",
    "hares": "Doris"
  },
  {
    "date": "2023-11-22",
    "kennelTags": [
      "tnth3"
    ],
    "title": "Run #2003 Roseburn Bar (Murrayfield)",
    "runNumber": 2003,
    "startTime": "18:30",
    "hares": "Clarty Carthy, Mac the Dick"
  },
  {
    "date": "2023-11-29",
    "kennelTags": [
      "tnth3"
    ],
    "title": "Run # 2004 The Dreadnought (Newhaven)",
    "runNumber": 2004,
    "startTime": "18:30",
    "hares": "Fleshmob"
  },
  {
    "date": "2023-12-06",
    "kennelTags": [
      "tnth3"
    ],
    "title": "Run #2005 Bennets of Morningside",
    "runNumber": 2005,
    "startTime": "18:30"
  },
  {
    "date": "2023-12-08",
    "kennelTags": [
      "tnth3"
    ],
    "title": "TNT H3 Xmas Lunch/Party",
    "runNumber": 2004,
    "startTime": "14:00"
  },
  {
    "date": "2023-12-13",
    "kennelTags": [
      "tnth3"
    ],
    "title": "Run #2006 Tanners Bar (Juniper Green)",
    "runNumber": 2006,
    "startTime": "18:30",
    "hares": "Badger Tadger"
  },
  {
    "date": "2023-12-20",
    "kennelTags": [
      "tnth3"
    ],
    "title": "Run # 2007 Steel Coulson Shore (Leith)",
    "runNumber": 2007,
    "startTime": "18:30",
    "hares": "Big Mac, Blind Doug",
    "location": "Steel Coulson Shore",
    "latitude": 55.97594,
    "longitude": -3.168104
  },
  {
    "date": "2023-12-27",
    "kennelTags": [
      "tnth3"
    ],
    "title": "Run # 2008 Clark's Bar (Central)",
    "runNumber": 2008,
    "startTime": "18:30",
    "hares": "Used to Be Nice",
    "location": "Clark's Bar",
    "latitude": 55.960048,
    "longitude": -3.200935
  },
  {
    "date": "2024-01-01",
    "kennelTags": [
      "tnth3"
    ],
    "title": "New Years Day Trail",
    "runNumber": 2006,
    "startTime": "11:00",
    "hares": "Septic Sporran"
  },
  {
    "date": "2024-01-03",
    "kennelTags": [
      "tnth3"
    ],
    "title": "Run #2009 Old Eastway Tap (Leith)",
    "runNumber": 2009,
    "startTime": "18:30",
    "hares": "Inspector Gorse",
    "location": "Old Eastway Tap",
    "latitude": 55.963817,
    "longitude": -3.170726
  },
  {
    "date": "2024-01-10",
    "kennelTags": [
      "tnth3"
    ],
    "title": "Run #2010 - Newhaven",
    "runNumber": 2010,
    "startTime": "18:30",
    "hares": "Septic Sporran",
    "location": "The Harbor Inn",
    "latitude": 55.980725,
    "longitude": -3.1950053
  },
  {
    "date": "2024-01-17",
    "kennelTags": [
      "tnth3"
    ],
    "title": "Run #2011",
    "runNumber": 2011,
    "startTime": "18:30",
    "location": "The Golden Rule",
    "latitude": 55.9483279,
    "longitude": -3.2190906
  },
  {
    "date": "2024-01-24",
    "kennelTags": [
      "tnth3"
    ],
    "title": "Run # 2012 Thomson's Bar (Haymarket)",
    "runNumber": 2012,
    "startTime": "18:30",
    "hares": "Captain Bimbo, Postman Pat",
    "location": "Thomson's Bar",
    "latitude": 55.94628,
    "longitude": -3.21228
  },
  {
    "date": "2024-01-31",
    "kennelTags": [
      "tnth3"
    ],
    "title": "Run # 2013 Orchard Bar (Canonmills)",
    "runNumber": 2013,
    "startTime": "18:30",
    "hares": "Lost Contact, Lost Patrol",
    "location": "The Orchard Bar",
    "latitude": 55.9634326,
    "longitude": -3.2006646
  },
  {
    "date": "2024-02-07",
    "kennelTags": [
      "tnth3"
    ],
    "title": "Run # 2014 Leslie's Bar (Newington)",
    "runNumber": 2014,
    "startTime": "18:30",
    "hares": "Can't Deliver",
    "location": "Leslie's Bar",
    "latitude": 55.9339356,
    "longitude": -3.1779745
  },
  {
    "date": "2024-02-14",
    "kennelTags": [
      "tnth3"
    ],
    "title": "Run # 2015",
    "runNumber": 2015,
    "startTime": "18:30",
    "hares": "Jemima Pedalduck",
    "location": "Portobello Tap",
    "latitude": 55.953991,
    "longitude": -3.116171
  },
  {
    "date": "2024-02-21",
    "kennelTags": [
      "tnth3"
    ],
    "title": "Run 2016 - The Cumberland Bar",
    "runNumber": 2016,
    "startTime": "18:31",
    "hares": "Hairspray , Rugrat",
    "location": "The Cumberland Bar",
    "latitude": 55.9591003,
    "longitude": -3.1971028
  },
  {
    "date": "2024-02-28",
    "kennelTags": [
      "tnth3"
    ],
    "title": "TNT Run 2017",
    "runNumber": 2017,
    "startTime": "18:30",
    "hares": "Used to be Nice",
    "location": "The Old Bell",
    "latitude": 55.9349588,
    "longitude": -3.1790077
  },
  {
    "date": "2024-03-06",
    "kennelTags": [
      "tnth3"
    ],
    "title": "Run 2018 - Wee Bennets",
    "runNumber": 2018,
    "startTime": "18:30",
    "hares": "Bad News",
    "location": "Bennets of Morningside",
    "latitude": 55.9264676,
    "longitude": -3.2095079
  },
  {
    "date": "2024-03-13",
    "kennelTags": [
      "tnth3"
    ],
    "title": "2019 - Moonwake Brewery",
    "runNumber": 2019,
    "startTime": "18:30",
    "hares": "Septic Sporran",
    "location": "Moonwake Beer Co.",
    "latitude": 55.9774135,
    "longitude": -3.1682306
  },
  {
    "date": "2024-03-20",
    "kennelTags": [
      "tnth3"
    ],
    "title": "2020 - Orchard Bar",
    "runNumber": 2020,
    "startTime": "18:30",
    "hares": "DMC / Doris Made Me Come",
    "location": "The Orchard Bar",
    "latitude": 55.963415,
    "longitude": -3.2006652
  },
  {
    "date": "2024-03-27",
    "kennelTags": [
      "tnth3"
    ],
    "title": "2021 - Brass Monkey Grange",
    "runNumber": 2021,
    "startTime": "18:30",
    "hares": "Jeez Wow",
    "location": "The Brass Monkey, Grange",
    "latitude": 55.9368638,
    "longitude": -3.1806277
  },
  {
    "date": "2024-04-03",
    "kennelTags": [
      "tnth3"
    ],
    "title": "2022 - Portobello Tap",
    "runNumber": 2022,
    "startTime": "18:30",
    "hares": "Handmaiden , Simon the Bastard / Duke of Edinburgh",
    "location": "Portobello Tap",
    "latitude": 55.9542778,
    "longitude": -3.1167603
  },
  {
    "date": "2024-04-10",
    "kennelTags": [
      "tnth3"
    ],
    "title": "2023",
    "runNumber": 2023,
    "startTime": "18:30",
    "hares": "Vital Spark",
    "location": "The Argyle Bar",
    "latitude": 55.9382441,
    "longitude": -3.1915265
  },
  {
    "date": "2024-04-17",
    "kennelTags": [
      "tnth3"
    ],
    "title": "Run of the year!  A to B TRAIL starting 6PM",
    "runNumber": 2024,
    "startTime": "18:00",
    "hares": "Railroad",
    "location": "7, Laverockdale Park => Colinton Inn",
    "latitude": 55.901292,
    "longitude": -3.251973
  },
  {
    "date": "2024-04-24",
    "kennelTags": [
      "tnth3"
    ],
    "title": "2025 -- Ye Olde Inn",
    "runNumber": 2025,
    "startTime": "18:30",
    "hares": "Dragon and Bubbles",
    "location": "Ye Olde Inn, Davidson's Mains",
    "latitude": 55.9655143,
    "longitude": -3.273668
  },
  {
    "date": "2024-05-01",
    "kennelTags": [
      "tnth3"
    ],
    "title": "2026 - The Auld Hoose",
    "runNumber": 2026,
    "startTime": "18:30",
    "hares": "Can't Deliver",
    "location": "The Auld Hoose",
    "latitude": 55.9435786,
    "longitude": -3.1801825
  },
  {
    "date": "2024-05-08",
    "kennelTags": [
      "tnth3"
    ],
    "title": "2027 - Inverleith Rugby Club",
    "runNumber": 2027,
    "startTime": "18:30",
    "hares": "Shaggus",
    "location": "Inverleith Rugby Club",
    "latitude": 55.969037,
    "longitude": -3.2160923
  },
  {
    "date": "2024-05-15",
    "kennelTags": [
      "tnth3"
    ],
    "title": "2028 - Winston's",
    "runNumber": 2028,
    "startTime": "18:30",
    "hares": "Bureauprat",
    "location": "Winston's in Corstorphine",
    "latitude": 55.942282,
    "longitude": -3.2814416
  },
  {
    "date": "2024-05-22",
    "kennelTags": [
      "tnth3"
    ],
    "title": "2029 - The Old Bell",
    "runNumber": 2029,
    "startTime": "18:30",
    "hares": "Jemima Pedalduck, Red Jumper",
    "location": "The Old Bell",
    "latitude": 55.9349395,
    "longitude": -3.1790752
  },
  {
    "date": "2024-05-29",
    "kennelTags": [
      "tnth3"
    ],
    "title": "2030 - Roseburn Bar",
    "runNumber": 2030,
    "startTime": "18:30",
    "hares": "Clarty Carthy",
    "location": "The Roseburn",
    "latitude": 55.9453832,
    "longitude": -3.2338691
  },
  {
    "date": "2024-06-05",
    "kennelTags": [
      "tnth3"
    ],
    "title": "2031 - Thomson's",
    "runNumber": 2031,
    "startTime": "18:30",
    "hares": "Squatter Spotter et. al.",
    "location": "Thomson's Bar, Haymarket",
    "latitude": 55.946243,
    "longitude": -3.2122847
  },
  {
    "date": "2024-06-12",
    "kennelTags": [
      "tnth3"
    ],
    "title": "2032 - Ormelie Tavern",
    "runNumber": 2032,
    "startTime": "18:30",
    "hares": "Fleshmob",
    "location": "The Ormelie Tavern, Portobello",
    "latitude": 55.9491329,
    "longitude": -3.0985889
  },
  {
    "date": "2024-06-19",
    "kennelTags": [
      "tnth3"
    ],
    "title": "2033 - Steel Coulson Southside",
    "runNumber": 2033,
    "startTime": "18:30",
    "hares": "Big Mac, Full Steam",
    "location": "Southside",
    "latitude": 55.9373282,
    "longitude": -3.1808123
  },
  {
    "date": "2024-06-26",
    "kennelTags": [
      "tnth3"
    ],
    "title": "2034 - Winston's",
    "runNumber": 2034,
    "startTime": "18:30",
    "hares": "DMC / Doris Made Me Come",
    "location": "Winston's",
    "latitude": 55.9423871,
    "longitude": -3.2814407
  },
  {
    "date": "2024-07-03",
    "kennelTags": [
      "tnth3"
    ],
    "title": "2035 -- Argyle Bar",
    "runNumber": 2035,
    "startTime": "18:30",
    "hares": "Hairspray , Postman Pat",
    "location": "The Argyle",
    "latitude": 55.938214,
    "longitude": -3.191559
  },
  {
    "date": "2024-07-05",
    "kennelTags": [
      "tnth3"
    ],
    "title": "40th Birthday Red Dress Run",
    "runNumber": null,
    "startTime": "18:30",
    "hares": "Megasaurarse, Strider and Headless Mullet",
    "location": "Beehive Inn, Grassmarket",
    "latitude": 55.9475107,
    "longitude": -3.1970053
  },
  {
    "date": "2024-07-06",
    "kennelTags": [
      "tnth3"
    ],
    "title": "40th Birthday Trail",
    "runNumber": null,
    "startTime": "13:00",
    "hares": "Inspector Gorse, Simon the Bastard / Duke of Edinburgh",
    "location": "Bellfield Brewery",
    "latitude": 55.9558567,
    "longitude": -3.1645322
  },
  {
    "date": "2024-07-06",
    "kennelTags": [
      "tnth3"
    ],
    "title": "40th Birthday Party",
    "runNumber": null,
    "startTime": "19:00",
    "hares": "Party Animals",
    "location": "The Counting House",
    "latitude": 55.944585,
    "longitude": -3.1851236
  },
  {
    "date": "2024-07-07",
    "kennelTags": [
      "tnth3"
    ],
    "title": "40th Birthday Recovery Run",
    "runNumber": null,
    "startTime": "11:00",
    "hares": "Septic Sporran",
    "location": "The Place -- Edinburgh Accies Clubhouse, Stockbridge"
  },
  {
    "date": "2024-07-10",
    "kennelTags": [
      "tnth3"
    ],
    "title": "2036 - Leslie's Bar",
    "runNumber": 2036,
    "startTime": "18:30",
    "hares": "Jump Start, Trouser Shredder",
    "location": "Leslie's Bar",
    "latitude": 55.9339259,
    "longitude": -3.1781142
  },
  {
    "date": "2024-07-17",
    "kennelTags": [
      "tnth3"
    ],
    "title": "2037 - Wee Bennet's",
    "runNumber": 2037,
    "startTime": "18:30",
    "hares": "Tonguelasher",
    "location": "Bennets of Morningside",
    "latitude": 55.9264788,
    "longitude": -3.2096492
  },
  {
    "date": "2024-07-24",
    "kennelTags": [
      "tnth3"
    ],
    "title": "2038 - The Orchard Bar",
    "runNumber": 2038,
    "startTime": "18:30",
    "hares": "Lost Patrol and Lost Contact",
    "location": "The Orchard Bar, Canonmills",
    "latitude": 55.9633903,
    "longitude": -3.20074
  },
  {
    "date": "2024-07-31",
    "kennelTags": [
      "tnth3"
    ],
    "title": "2039 - The Diggers",
    "runNumber": 2039,
    "startTime": "18:30",
    "hares": "Red Jumper",
    "location": "The Diggers",
    "latitude": 55.9389242,
    "longitude": -3.2237125
  },
  {
    "date": "2024-08-07",
    "kennelTags": [
      "tnth3"
    ],
    "title": "2040 - Fisherrow Tap",
    "runNumber": 2040,
    "startTime": "18:30",
    "hares": "Jemima Pedalduck",
    "location": "Fisherrow Tap",
    "latitude": 55.94486,
    "longitude": -3.0627361
  },
  {
    "date": "2024-08-14",
    "kennelTags": [
      "tnth3"
    ],
    "title": "2041 - RED DRESS RUN from Assembly, George Square",
    "runNumber": 2041,
    "startTime": "18:30",
    "hares": "DMC / Doris Made Me Come",
    "location": "Assembly, George Square",
    "latitude": 55.9435065,
    "longitude": -3.18799
  },
  {
    "date": "2024-08-21",
    "kennelTags": [
      "tnth3"
    ],
    "title": "2042 - Belfry",
    "runNumber": 2042,
    "startTime": "18:30",
    "hares": "Emu and Bureauprat",
    "location": "The Belfry, Tollcross",
    "latitude": 55.940396,
    "longitude": -3.2037547
  },
  {
    "date": "2024-08-28",
    "kennelTags": [
      "tnth3"
    ],
    "title": "2043 - Colinton Inn",
    "runNumber": 2043,
    "startTime": "18:30",
    "hares": "Multi Tasking Tool, Red Jumper",
    "location": "Colinton Inn",
    "latitude": 55.9074625,
    "longitude": -3.2560723
  },
  {
    "date": "2024-09-04",
    "kennelTags": [
      "tnth3"
    ],
    "title": "2044 - Old Bell",
    "runNumber": 2044,
    "startTime": "18:30",
    "hares": "Dope",
    "location": "The Old Bell",
    "latitude": 55.9349571,
    "longitude": -3.1790399
  },
  {
    "date": "2024-09-11",
    "kennelTags": [
      "tnth3"
    ],
    "title": "2045 - Grange Club",
    "runNumber": 2045,
    "startTime": "18:30",
    "hares": "Mad Duster and Magaphone",
    "location": "The Grange Club",
    "latitude": 55.9600245,
    "longitude": -3.2133873
  },
  {
    "date": "2024-09-18",
    "kennelTags": [
      "tnth3"
    ],
    "title": "2046 - Old Eastway Tap",
    "runNumber": 2046,
    "startTime": "18:30",
    "hares": "Inspector Gorse",
    "location": "The Old Eastway Tap",
    "latitude": 55.9623273,
    "longitude": -3.170893
  },
  {
    "date": "2024-09-25",
    "kennelTags": [
      "tnth3"
    ],
    "title": "2047 - Portobello Bowling Club",
    "runNumber": 2047,
    "startTime": "18:30",
    "hares": "Full Steam",
    "location": "Portobello Bowling Club",
    "latitude": 55.9518919,
    "longitude": -3.1141496
  },
  {
    "date": "2024-10-02",
    "kennelTags": [
      "tnth3"
    ],
    "title": "2048 - Harbour Inn",
    "runNumber": 2048,
    "startTime": "18:30",
    "hares": "Septic Sporran",
    "location": "The Harbour Inn in Newhaven",
    "latitude": 55.9806974,
    "longitude": -3.1949714
  },
  {
    "date": "2024-10-16",
    "kennelTags": [
      "tnth3"
    ],
    "title": "2050 - Golden Rule",
    "runNumber": 2050,
    "startTime": "18:30",
    "hares": "DMC / Doris Made Me Come",
    "location": "The Golden Rule",
    "latitude": 55.9391334,
    "longitude": -3.2187576
  },
  {
    "date": "2024-10-23",
    "kennelTags": [
      "tnth3"
    ],
    "title": "2051 - Ye Olde Inn",
    "runNumber": 2051,
    "startTime": "18:30",
    "hares": "Bubbles and Dragon",
    "location": "Ye Olde Inn, Davidson's Mains",
    "latitude": 55.96564316907801,
    "longitude": -3.273657200026139
  },
  {
    "date": "2024-10-30",
    "kennelTags": [
      "tnth3"
    ],
    "title": "2052 -- Wee Bennets",
    "runNumber": 2052,
    "startTime": "18:30",
    "hares": "Multi Tasking Tool",
    "location": "Bennet's of Morningside",
    "latitude": 55.9264816,
    "longitude": -3.2096447
  },
  {
    "date": "2024-11-06",
    "kennelTags": [
      "tnth3"
    ],
    "title": "2053 - Portobello Tap",
    "runNumber": 2053,
    "startTime": "18:30",
    "hares": "Fleshmob",
    "location": "Portobello Tap",
    "latitude": 55.9542528,
    "longitude": -3.1167475
  },
  {
    "date": "2024-11-13",
    "kennelTags": [
      "tnth3"
    ],
    "title": "2054 - The Grange Club",
    "runNumber": 2054,
    "startTime": "18:30",
    "hares": "Megasaurarse",
    "location": "The Grange Club",
    "latitude": 55.9600167,
    "longitude": -3.2133829
  },
  {
    "date": "2024-11-20",
    "kennelTags": [
      "tnth3"
    ],
    "title": "2055 - Old Eastway Tap",
    "runNumber": 2055,
    "startTime": "18:30",
    "hares": "Lord Elgin (aka Acrapolis)",
    "location": "The Old Eastway Tap",
    "latitude": 55.9623213,
    "longitude": -3.1708323
  },
  {
    "date": "2024-11-27",
    "kennelTags": [
      "tnth3"
    ],
    "title": "2056 -- The Roseburn",
    "runNumber": 2056,
    "startTime": "18:30",
    "hares": "Clarty Carthy",
    "location": "Roseburn Bar",
    "latitude": 55.9453018,
    "longitude": -3.2338265
  },
  {
    "date": "2024-12-04",
    "kennelTags": [
      "tnth3"
    ],
    "title": "2057 - Argyle",
    "runNumber": 2057,
    "startTime": "18:30",
    "hares": "Mongoose",
    "location": "Argyle Bar",
    "latitude": 55.9382461,
    "longitude": -3.1915706
  },
  {
    "date": "2024-12-11",
    "kennelTags": [
      "tnth3"
    ],
    "title": "2058 - The Mother Superior",
    "runNumber": 2058,
    "startTime": "18:30",
    "hares": "Big Mac, Blind Doug",
    "location": "The Mother Superior, Leith Walk",
    "latitude": 55.9690646,
    "longitude": -3.1732851
  },
  {
    "date": "2024-12-18",
    "kennelTags": [
      "tnth3"
    ],
    "title": "2059 - Robbie's Bar",
    "runNumber": 2059,
    "startTime": "18:30",
    "hares": "Megasaurarse",
    "location": "Robbie's Bar",
    "latitude": 55.9637223,
    "longitude": -3.1775503
  },
  {
    "date": "2024-12-25",
    "kennelTags": [
      "tnth3"
    ],
    "title": "Christmas Day at Jeremiah's",
    "runNumber": 2060,
    "startTime": "12:00",
    "hares": "Bureauprat",
    "location": "Jeremiah's Tap Room",
    "latitude": 55.9583695,
    "longitude": -3.1837261
  },
  {
    "date": "2025-01-01",
    "kennelTags": [
      "tnth3"
    ],
    "title": "New Year's Day",
    "runNumber": 2061,
    "startTime": "18:30",
    "hares": "Cockatool , Septic Sporran",
    "location": "The Cask and Barrel",
    "latitude": 55.9591498,
    "longitude": -3.190363
  },
  {
    "date": "2025-01-08",
    "kennelTags": [
      "tnth3"
    ],
    "title": "2062 - Thomson's",
    "runNumber": 2062,
    "startTime": "18:30",
    "hares": "Bad News, Postman Pat",
    "location": "Thomson's Bar",
    "latitude": 55.946256,
    "longitude": -3.2122713
  },
  {
    "date": "2025-01-15",
    "kennelTags": [
      "tnth3"
    ],
    "title": "2063 - Leslie's Bar",
    "runNumber": 2063,
    "startTime": "18:30",
    "hares": "Can't Deliver",
    "location": "Leslie's Bar",
    "latitude": 55.9339294,
    "longitude": -3.1781272
  },
  {
    "date": "2025-01-22",
    "kennelTags": [
      "tnth3"
    ],
    "title": "2064 - Old Eastway Tap",
    "runNumber": 2064,
    "startTime": "18:30",
    "hares": "Inspector Gorse, Simon the Bastard / Duke of Edinburgh",
    "location": "Old Eastway Tap",
    "latitude": 55.9622601,
    "longitude": -3.1707732
  },
  {
    "date": "2025-01-29",
    "kennelTags": [
      "tnth3"
    ],
    "title": "2065 - Portobello Tap",
    "runNumber": 2065,
    "startTime": "18:30",
    "hares": "Jemima Pedalduck",
    "location": "Portobello Tap",
    "latitude": 55.9542855,
    "longitude": -3.1167391
  },
  {
    "date": "2025-02-05",
    "kennelTags": [
      "tnth3"
    ],
    "title": "2066 - Caley Sample Rooms",
    "runNumber": 2066,
    "startTime": "18:30",
    "hares": "Canadian Club",
    "location": "Caley Sample Rooms",
    "latitude": 55.9377,
    "longitude": -3.2259
  },
  {
    "date": "2025-02-12",
    "kennelTags": [
      "tnth3"
    ],
    "title": "2067 - The Cask And Barrel",
    "runNumber": 2067,
    "startTime": "18:30",
    "hares": "Septic Sporran",
    "location": "The Cask and Barrel (N.B. Broughton Street)",
    "latitude": 55.9590999,
    "longitude": -3.1903641
  },
  {
    "date": "2025-02-19",
    "kennelTags": [
      "tnth3"
    ],
    "title": "2068 - Orchard Bar",
    "runNumber": 2068,
    "startTime": "18:30",
    "hares": "Lost Patrol",
    "location": "Orchard Bar",
    "latitude": 55.9633901,
    "longitude": -3.2007171
  },
  {
    "date": "2025-02-26",
    "kennelTags": [
      "tnth3"
    ],
    "title": "2069 - Steel Coulson Southside",
    "runNumber": 2069,
    "startTime": "18:30",
    "hares": "Full Steam , Red Jumper",
    "location": "Steel Coulson Southside",
    "latitude": 55.9373133,
    "longitude": -3.1807896
  },
  {
    "date": "2025-03-05",
    "kennelTags": [
      "tnth3"
    ],
    "title": "2070 - The Diggers",
    "runNumber": 2070,
    "startTime": "18:30",
    "hares": "Mac the Dick",
    "location": "Athletic Arms AKA The Diggers",
    "latitude": 55.9390026,
    "longitude": -3.2236771
  },
  {
    "date": "2025-03-12",
    "kennelTags": [
      "tnth3"
    ],
    "title": "2071 -Winston's",
    "runNumber": 2071,
    "startTime": "18:30",
    "hares": "Foot Fetish and A.N.Other",
    "location": "Winston's",
    "latitude": 55.9423288,
    "longitude": -3.2814523
  },
  {
    "date": "2025-03-19",
    "kennelTags": [
      "tnth3"
    ],
    "title": "2072 - Orchard Bar",
    "runNumber": 2072,
    "startTime": "18:30",
    "hares": "DMC / Doris Made Me Come",
    "location": "The Orchard Bar",
    "latitude": 55.9634938,
    "longitude": -3.2008424
  },
  {
    "date": "2025-03-26",
    "kennelTags": [
      "tnth3"
    ],
    "title": "2073 - The Old Bell",
    "runNumber": 2073,
    "startTime": "18:30",
    "hares": "Multi Tasking Tool, Red Jumper",
    "location": "The Old Bell",
    "latitude": 55.9350007,
    "longitude": -3.1790849
  },
  {
    "date": "2025-04-02",
    "kennelTags": [
      "tnth3"
    ],
    "title": "2074 - Riccarton Inn",
    "runNumber": 2074,
    "startTime": "18:30",
    "hares": "Railroad",
    "location": "Riccarton Inn",
    "latitude": 55.8964301,
    "longitude": -3.3094892
  },
  {
    "date": "2025-04-09",
    "kennelTags": [
      "tnth3"
    ],
    "title": "2075 - Colinton Inn",
    "runNumber": 2075,
    "startTime": "18:30",
    "hares": "70/-, 80/-",
    "location": "The Colinton Inn",
    "latitude": 55.9074318,
    "longitude": -3.2560972
  },
  {
    "date": "2025-04-16",
    "kennelTags": [
      "tnth3"
    ],
    "title": "2076 - Grange Club",
    "runNumber": 2076,
    "startTime": "18:30",
    "hares": "Magaphone",
    "location": "The Grange Club",
    "latitude": 55.9598278,
    "longitude": -3.2134883
  },
  {
    "date": "2025-04-23",
    "kennelTags": [
      "tnth3"
    ],
    "title": "2077 - Leslie's Bar",
    "runNumber": 2077,
    "startTime": "18:30",
    "hares": "Can't Deliver",
    "location": "Leslie's Bar",
    "latitude": 55.9339857,
    "longitude": -3.1781336
  },
  {
    "date": "2025-04-30",
    "kennelTags": [
      "tnth3"
    ],
    "title": "2078 - Cumberland Bar",
    "runNumber": 2078,
    "startTime": "18:30",
    "hares": "Hairspray",
    "location": "Cumberland Bar",
    "latitude": 55.9590282,
    "longitude": -3.1970477
  },
  {
    "date": "2025-05-07",
    "kennelTags": [
      "tnth3"
    ],
    "title": "2079 - Brass Monkey Grange",
    "runNumber": 2079,
    "startTime": "18:30",
    "hares": "Jeez Wow",
    "location": "Brass Monkey Grange",
    "latitude": 55.9368582,
    "longitude": -3.1806199
  },
  {
    "date": "2025-05-14",
    "kennelTags": [
      "tnth3"
    ],
    "title": "2080 - Ye Olde Inn",
    "runNumber": 2080,
    "startTime": "18:30",
    "hares": "Bubbles and Dragon",
    "location": "Ye Olde Inn, Davidson's Mains",
    "latitude": 55.9656651,
    "longitude": -3.2736599
  },
  {
    "date": "2025-05-21",
    "kennelTags": [
      "tnth3"
    ],
    "title": "2081 - Roseburn",
    "runNumber": 2081,
    "startTime": "18:30",
    "hares": "Clarty Carthy, Mac the Dick",
    "location": "Roseburn Bar",
    "latitude": 55.9453629,
    "longitude": -3.2338113
  },
  {
    "date": "2025-05-28",
    "kennelTags": [
      "tnth3"
    ],
    "title": "2082 - Wee Bennet's",
    "runNumber": 2082,
    "startTime": "18:30",
    "hares": "Headless Mullet , Tongue Lasher",
    "location": "Bennet's of Morningside",
    "latitude": 55.9264961,
    "longitude": -3.2096573
  },
  {
    "date": "2025-06-04",
    "kennelTags": [
      "tnth3"
    ],
    "title": "2083 - Hunters Tryst",
    "runNumber": 2083,
    "startTime": "18:30",
    "hares": "Blind Doug",
    "location": "Hunters Tryst, Oxgangs",
    "latitude": 55.90254506293862,
    "longitude": -3.221038008163994
  },
  {
    "date": "2025-06-11",
    "kennelTags": [
      "tnth3"
    ],
    "title": "2084 - Portobello Tap",
    "runNumber": 2084,
    "startTime": "18:30",
    "hares": "Simon the Bastard / Duke of Edinburgh",
    "location": "The Portobello Tap",
    "latitude": 55.9542891,
    "longitude": -3.1167967
  },
  {
    "date": "2025-06-18",
    "kennelTags": [
      "tnth3"
    ],
    "title": "2085 - Inverleith Rugby Club",
    "runNumber": 2085,
    "startTime": "18:30",
    "hares": "Megasaurarse, Shaggus",
    "location": "Inverleith Rugby Club",
    "latitude": 55.9691257,
    "longitude": -3.2157948
  },
  {
    "date": "2025-06-25",
    "kennelTags": [
      "tnth3"
    ],
    "title": "2086 - Charwood",
    "runNumber": 2086,
    "startTime": "18:30",
    "hares": "Red Jumper",
    "location": "Charwood",
    "latitude": 55.9045168,
    "longitude": -3.2070117
  },
  {
    "date": "2025-07-02",
    "kennelTags": [
      "tnth3"
    ],
    "title": "2087 - The Argyle",
    "runNumber": 2087,
    "startTime": "18:30",
    "hares": "AOCM and PERCY",
    "location": "The Argyle",
    "latitude": 55.9383053,
    "longitude": -3.1916496
  },
  {
    "date": "2025-07-09",
    "kennelTags": [
      "tnth3"
    ],
    "title": "2088 - Staggs",
    "runNumber": 2088,
    "startTime": "18:30",
    "hares": "Jemima Pedalduck",
    "location": "Staggs / Volunteer Arms",
    "latitude": 55.9441799,
    "longitude": -3.0570845
  },
  {
    "date": "2025-07-16",
    "kennelTags": [
      "tnth3"
    ],
    "title": "2089 - Thomson's",
    "runNumber": 2089,
    "startTime": "18:30",
    "hares": "Captain Oates",
    "location": "Thomson's",
    "latitude": 55.9462395,
    "longitude": -3.2122732
  },
  {
    "date": "2025-07-23",
    "kennelTags": [
      "tnth3"
    ],
    "title": "2090 - Winston's",
    "runNumber": 2090,
    "startTime": "18:30",
    "hares": "Bureauprat",
    "location": "Winston's",
    "latitude": 55.9422884,
    "longitude": -3.2814441
  },
  {
    "date": "2025-07-30",
    "kennelTags": [
      "tnth3"
    ],
    "title": "2091 - Leslie's Bar",
    "runNumber": 2091,
    "startTime": "18:30",
    "hares": "Canadian Club, Jump Start",
    "location": "Leslie's Bar",
    "latitude": 55.933925,
    "longitude": -3.1781542
  },
  {
    "date": "2025-08-06",
    "kennelTags": [
      "tnth3"
    ],
    "title": "2092 - Assembly George Square",
    "runNumber": 2092,
    "startTime": "18:30",
    "hares": "Blind Doug, DMC / Doris Made Me Come",
    "location": "Assembly in George Square (North East corner)",
    "latitude": 55.9439242,
    "longitude": -3.1882797
  },
  {
    "date": "2025-08-13",
    "kennelTags": [
      "tnth3"
    ],
    "title": "2093 - Roseburn Bar",
    "runNumber": 2093,
    "startTime": "18:30",
    "hares": "Mongoose",
    "location": "Roseburn Bar",
    "latitude": 55.9453044,
    "longitude": -3.2338734
  },
  {
    "date": "2025-08-20",
    "kennelTags": [
      "tnth3"
    ],
    "title": "2094 - Fierce Beer",
    "runNumber": 2094,
    "startTime": "18:30",
    "hares": "Simon the Bastard / Duke of Edinburgh",
    "location": "Fierce Beer, Rose Street",
    "latitude": 55.9514087,
    "longitude": -3.2052793
  },
  {
    "date": "2025-08-27",
    "kennelTags": [
      "tnth3"
    ],
    "title": "2095 - Colinton Inn",
    "runNumber": 2095,
    "startTime": "18:30",
    "hares": "Foot Fetish",
    "location": "Colinton Inn",
    "latitude": 55.9074386,
    "longitude": -3.2560723
  },
  {
    "date": "2025-09-03",
    "kennelTags": [
      "tnth3"
    ],
    "title": "2096 - Orchard Bar",
    "runNumber": 2096,
    "startTime": "18:30",
    "hares": "Lost Patrol and Lost Contact",
    "location": "The Orchard Bar",
    "latitude": 55.963379,
    "longitude": -3.200647
  },
  {
    "date": "2025-09-10",
    "kennelTags": [
      "tnth3"
    ],
    "title": "2097 - The Diggers",
    "runNumber": 2097,
    "startTime": "18:30",
    "hares": "Jemima Pedalduck",
    "location": "The Diggers aka The Athletic Arms",
    "latitude": 55.9389407,
    "longitude": -3.2237136
  },
  {
    "date": "2025-09-17",
    "kennelTags": [
      "tnth3"
    ],
    "title": "2098 - The Finch",
    "runNumber": 2098,
    "startTime": "18:30",
    "hares": "Big Mac, Blind Doug",
    "location": "The Finch (Formerly \"The Bullfinch\")",
    "latitude": 55.9746312,
    "longitude": -3.1606865
  },
  {
    "date": "2025-09-24",
    "kennelTags": [
      "tnth3"
    ],
    "title": "2099 - Harbour Inn",
    "runNumber": 2099,
    "startTime": "18:30",
    "hares": "Septic Sporran",
    "location": "Harbour Inn, Newhaven",
    "latitude": 55.9806765,
    "longitude": -3.1949891
  },
  {
    "date": "2025-10-01",
    "kennelTags": [
      "tnth3"
    ],
    "title": "2100 - Roseburn Bar (TNT AGM)",
    "runNumber": 2100,
    "startTime": "18:30",
    "hares": "Clarty Carthy, Mac the Dick",
    "location": "The Roseburn Bar",
    "latitude": 55.9454057,
    "longitude": -3.2338403
  },
  {
    "date": "2025-10-08",
    "kennelTags": [
      "tnth3"
    ],
    "title": "2101 - Argyle Bar",
    "runNumber": 2101,
    "startTime": "18:30",
    "hares": "Septic Sporran",
    "location": "The Argyle Bar",
    "latitude": 55.9383004,
    "longitude": -3.1915701
  },
  {
    "date": "2025-10-15",
    "kennelTags": [
      "tnth3"
    ],
    "title": "2102 - Bennet's of Morningside",
    "runNumber": 2102,
    "startTime": "18:30",
    "hares": "Bad News",
    "location": "Wee Bennets",
    "latitude": 55.9264724,
    "longitude": -3.2096574
  },
  {
    "date": "2025-10-22",
    "kennelTags": [
      "tnth3"
    ],
    "title": "2103 - Caley Sample Rooms",
    "runNumber": 2103,
    "startTime": "18:30",
    "hares": "Bureauprat",
    "location": "Caley Sample Rooms",
    "latitude": 55.9376779,
    "longitude": -3.2257981
  },
  {
    "date": "2025-10-29",
    "kennelTags": [
      "tnth3"
    ],
    "title": "2104 - Cumberland Bar",
    "runNumber": 2104,
    "startTime": "18:30",
    "hares": "Fleshmob",
    "location": "The Cumberland Bar",
    "latitude": 55.959025,
    "longitude": -3.19707
  },
  {
    "date": "2025-11-05",
    "kennelTags": [
      "tnth3"
    ],
    "title": "2105 - Ye Olde Inn",
    "runNumber": 2105,
    "startTime": "18:30",
    "hares": "Dragon and Bubbles",
    "location": "Ye Olde Inn, Davidson's Mains",
    "latitude": 55.9655107,
    "longitude": -3.2736931
  },
  {
    "date": "2025-11-10",
    "kennelTags": [
      "tnth3"
    ],
    "title": "Skittles Night",
    "runNumber": null,
    "startTime": "19:00",
    "location": "Sheep Heid, Duddingston",
    "latitude": 55.9419532,
    "longitude": -3.1484446
  },
  {
    "date": "2025-11-19",
    "kennelTags": [
      "tnth3"
    ],
    "title": "2107 - Grange Club",
    "runNumber": 2107,
    "startTime": "18:30",
    "hares": "Magaphone",
    "location": "The Grange Club",
    "latitude": 55.9600491,
    "longitude": -3.2133408
  },
  {
    "date": "2025-11-26",
    "kennelTags": [
      "tnth3"
    ],
    "title": "2108 - Portobello Bowling Club",
    "runNumber": 2108,
    "startTime": "18:30",
    "hares": "Jemima Pedalduck, Red Jumper",
    "location": "Portobello Bowling Club",
    "latitude": 55.9519095,
    "longitude": -3.1142008
  },
  {
    "date": "2025-12-03",
    "kennelTags": [
      "tnth3"
    ],
    "title": "2109 - Clark's Bar",
    "runNumber": 2109,
    "startTime": "18:30",
    "hares": "Postman Pat",
    "location": "Clark's Bar",
    "latitude": 55.9601751,
    "longitude": -3.2010318
  },
  {
    "date": "2025-12-10",
    "kennelTags": [
      "tnth3"
    ],
    "title": "2110 - Leslie's Bar",
    "runNumber": 2110,
    "startTime": "18:30",
    "hares": "DMC / Doris Made Me Come, Lost Cougar",
    "location": "Leslie's Bar",
    "latitude": 55.9339422,
    "longitude": -3.1781577
  },
  {
    "date": "2025-12-17",
    "kennelTags": [
      "tnth3"
    ],
    "title": "2111 - The Golden Rule",
    "runNumber": 2111,
    "startTime": "18:30",
    "hares": "70/-, Railroad",
    "location": "The Golden Rule",
    "latitude": 55.9391317,
    "longitude": -3.2187267
  },
  {
    "date": "2025-12-24",
    "kennelTags": [
      "tnth3"
    ],
    "title": "2112 - Thomson's",
    "runNumber": 2112,
    "startTime": "13:00",
    "hares": "Full Steam",
    "location": "Thomson's on Morrison Street",
    "latitude": 55.9462571,
    "longitude": -3.2122771
  },
  {
    "date": "2025-12-31",
    "kennelTags": [
      "tnth3"
    ],
    "title": "2113 - New Year with Headless Mullet",
    "runNumber": 2113,
    "startTime": "18:30",
    "hares": "Megasaurarse, Shaggus",
    "location": "Headless Mullet's House",
    "latitude": 55.9275517,
    "longitude": -3.231412
  },
  {
    "date": "2026-01-07",
    "kennelTags": [
      "tnth3"
    ],
    "title": "2114 - Bennets Bar",
    "runNumber": 2114,
    "startTime": "18:30",
    "hares": "DMC / Doris Made Me Come",
    "location": "Bennets NEXT TO THE KINGS THEATRE",
    "latitude": 55.9417185,
    "longitude": -3.2031215
  },
  {
    "date": "2026-01-14",
    "kennelTags": [
      "tnth3"
    ],
    "title": "2115 - Portobello Tap",
    "runNumber": 2115,
    "startTime": "18:30",
    "hares": "Simon the Bastard",
    "location": "Portobello Tap",
    "latitude": 55.9542715,
    "longitude": -3.1167608
  },
  {
    "date": "2026-01-21",
    "kennelTags": [
      "tnth3"
    ],
    "title": "2116 - Cumberland Bar",
    "runNumber": 2116,
    "startTime": "18:30",
    "hares": "Hairspray , Rugrat",
    "location": "Cumberland Bar",
    "latitude": 55.9590497,
    "longitude": -3.1969926
  },
  {
    "date": "2026-01-28",
    "kennelTags": [
      "tnth3"
    ],
    "title": "2117 - Nobles",
    "runNumber": 2117,
    "startTime": "18:30",
    "hares": "Blind Doug",
    "location": "Nobles / Nobles by Bellfield",
    "latitude": 55.9749074,
    "longitude": -3.1671467
  },
  {
    "date": "2026-02-04",
    "kennelTags": [
      "tnth3"
    ],
    "title": "2118 - Orchard Bar",
    "runNumber": 2118,
    "startTime": "18:30",
    "hares": "Septic Sporran",
    "location": "The Orchard Bar",
    "latitude": 55.9633915,
    "longitude": -3.2007027
  },
  {
    "date": "2026-02-11",
    "kennelTags": [
      "tnth3"
    ],
    "title": "2119 - Leslie's Bar",
    "runNumber": 2119,
    "startTime": "18:30",
    "hares": "Can't Deliver",
    "location": "Leslie's Bar",
    "latitude": 55.9339643,
    "longitude": -3.178125
  },
  {
    "date": "2026-02-18",
    "kennelTags": [
      "tnth3"
    ],
    "title": "2120 - Winston's",
    "runNumber": 2120,
    "startTime": "18:30",
    "hares": "Bureauprat",
    "location": "Winston's",
    "latitude": 55.9429928,
    "longitude": -3.282262
  },
  {
    "date": "2026-02-25",
    "kennelTags": [
      "tnth3"
    ],
    "title": "2121 - Wee Bennet's",
    "runNumber": 2121,
    "startTime": "18:30",
    "hares": "Cat Woman, Postman Pat",
    "location": "1C Maxwell Street",
    "latitude": 55.92648,
    "longitude": -3.20966
  },
  {
    "date": "2026-03-04",
    "kennelTags": [
      "tnth3"
    ],
    "title": "2122 - The Roseburn",
    "runNumber": 2122,
    "startTime": "18:30",
    "hares": "Clarty Carthy, Mac the Dick",
    "location": "Roseburn Bar",
    "latitude": 55.94536,
    "longitude": -3.2338
  },
  {
    "date": "2026-03-11",
    "kennelTags": [
      "tnth3"
    ],
    "title": "2123 - Colinton Inn",
    "runNumber": 2123,
    "startTime": "18:30",
    "hares": "70/-, 80/-",
    "location": "Colinton Inn",
    "latitude": 55.90746,
    "longitude": -3.25607
  },
  {
    "date": "2026-03-18",
    "kennelTags": [
      "tnth3"
    ],
    "title": "2124 - Orchard Bar",
    "runNumber": 2124,
    "startTime": "18:30",
    "hares": "DMC / Doris Made Me Come",
    "location": "Orchard Bar",
    "latitude": 55.96339,
    "longitude": -3.20072
  },
  {
    "date": "2026-03-25",
    "kennelTags": [
      "tnth3"
    ],
    "title": "2125 - Old Eastway Tap",
    "runNumber": 2125,
    "startTime": "18:30",
    "hares": "Inspector Gorse",
    "location": "Old Eastway Tap",
    "latitude": 55.96232,
    "longitude": -3.17082
  },
  {
    "date": "2026-04-01",
    "kennelTags": [
      "tnth3"
    ],
    "title": "2126 - Riccarton Inn",
    "runNumber": 2126,
    "startTime": "18:30",
    "hares": "Mongoose, Railroad",
    "location": "Riccarton Inn",
    "latitude": 55.89643,
    "longitude": -3.30949
  },
  {
    "date": "2026-04-08",
    "kennelTags": [
      "tnth3"
    ],
    "title": "2127 - Lauriston Farm Carvery",
    "runNumber": 2127,
    "startTime": "18:30",
    "hares": "Bubbles and Dragon",
    "location": "Lauriston Farm Carvery",
    "latitude": 55.97154,
    "longitude": -3.27478
  },
  {
    "date": "2026-04-15",
    "kennelTags": [
      "tnth3"
    ],
    "title": "2128 - Hunter's Tryst",
    "runNumber": 2128,
    "startTime": "18:30",
    "hares": "70/-, Railroad",
    "location": "Hunters Tryst, Oxgangs",
    "latitude": 55.90255,
    "longitude": -3.22104
  },
  {
    "date": "2026-04-22",
    "kennelTags": [
      "tnth3"
    ],
    "title": "2129 - Thomson's",
    "runNumber": 2129,
    "startTime": "18:30",
    "hares": "Bad News",
    "location": "Thomson's",
    "latitude": 55.94624,
    "longitude": -3.21227
  },
  {
    "date": "2026-04-29",
    "kennelTags": [
      "tnth3"
    ],
    "title": "2130 -- The Diggers",
    "runNumber": 2130,
    "startTime": "18:30",
    "hares": "Captain Oates",
    "location": "Athletic Arms AKA The Diggers",
    "latitude": 55.939,
    "longitude": -3.22368
  },
  {
    "date": "2026-05-06",
    "kennelTags": [
      "tnth3"
    ],
    "title": "2131 -- Orchard Bar",
    "runNumber": 2131,
    "startTime": "18:30",
    "hares": "Lost Patrol and Lost Contact",
    "location": "The Orchard Bar, Canonmills",
    "latitude": 55.96339,
    "longitude": -3.20074
  },
  {
    "date": "2026-05-13",
    "kennelTags": [
      "tnth3"
    ],
    "title": "2132 - Winstons",
    "runNumber": 2132,
    "startTime": "18:30",
    "hares": "Bureauprat",
    "location": "Winstons",
    "latitude": 55.94229,
    "longitude": -3.28151
  },
  {
    "date": "2026-05-20",
    "kennelTags": [
      "tnth3"
    ],
    "title": "2133 - Argyle Bar",
    "runNumber": 2133,
    "startTime": "18:30",
    "hares": "Margaret D. Flowered and DMC",
    "location": "The Argyle and Cellar Bar",
    "latitude": 55.93825,
    "longitude": -3.19156
  },
  {
    "date": "2026-05-27",
    "kennelTags": [
      "tnth3"
    ],
    "title": "2134 - Caley Sample Room",
    "runNumber": 2134,
    "startTime": "18:30",
    "hares": "Mongoose",
    "location": "The Caley Sample Room",
    "latitude": 55.93769,
    "longitude": -3.22582
  },
  {
    "date": "2026-06-03",
    "kennelTags": [
      "tnth3"
    ],
    "title": "2135 - Diggers Leith",
    "runNumber": 2135,
    "startTime": "18:30",
    "hares": "AOCM, Big Mac",
    "location": "The Diggers Leith",
    "latitude": 55.97533,
    "longitude": -3.16712
  },
  {
    "date": "2026-06-10",
    "kennelTags": [
      "tnth3"
    ],
    "title": "2136 - The Old Bell",
    "runNumber": 2136,
    "startTime": "18:30",
    "hares": "Red Jumper",
    "location": "The Old Bell",
    "latitude": 55.93494,
    "longitude": -3.17908
  },
  {
    "date": "2026-06-17",
    "kennelTags": [
      "tnth3"
    ],
    "title": "2137 - Portobello Tap",
    "runNumber": 2137,
    "startTime": "18:30",
    "hares": "Fleshmob",
    "location": "The Portobello Tap",
    "latitude": 55.95429,
    "longitude": -3.1168
  },
  {
    "date": "2026-06-24",
    "kennelTags": [
      "tnth3"
    ],
    "title": "2138 - Chez Penguin",
    "runNumber": 2138,
    "startTime": "18:30",
    "hares": "The Penguin and Mad Duster",
    "location": "24A York Place, Edinburgh, EH1 3EP",
    "latitude": 55.95639,
    "longitude": -3.19105
  },
  {
    "date": "2026-07-01",
    "kennelTags": [
      "tnth3"
    ],
    "title": "2139 - Roseburn Bar",
    "runNumber": 2139,
    "startTime": "18:30",
    "hares": "Clarty Carthy and Mac the Dick",
    "location": "Roseburn Bar",
    "latitude": 55.94537,
    "longitude": -3.2338
  }
]
